[
  {
    "model": "public.city",
    "pk": 1,
    "fields": {
      "has_districts": false,
      "latitude": 49.07548,
      "longitude": 27.67799,
      "radius": 1,
      "zoom": 12,
      "region": "vin",
      "name": "Бар",
      "normalized_name": "bar"
    }
  },
  {
    "model": "public.city",
    "pk": 2,
    "fields": {
      "has_districts": false,
      "latitude": 49.84395,
      "longitude": 28.86798,
      "radius": 1,
      "zoom": 12,
      "region": "vin",
      "name": "Білопілля",
      "normalized_name": "belopole_381"
    }
  },
  {
    "model": "public.city",
    "pk": 3,
    "fields": {
      "has_districts": false,
      "latitude": 48.36693,
      "longitude": 29.5254,
      "radius": 3,
      "zoom": 12,
      "region": "vin",
      "name": "Бершадь",
      "normalized_name": "bershad"
    }
  },
  {
    "model": "public.city",
    "pk": 4,
    "fields": {
      "has_districts": false,
      "latitude": 49.17121,
      "longitude": 27.99174,
      "radius": 1,
      "zoom": 12,
      "region": "vin",
      "name": "Василівка",
      "normalized_name": "vasilevka_192"
    }
  },
  {
    "model": "public.city",
    "pk": 5,
    "fields": {
      "has_districts": true,
      "latitude": 49.23685,
      "longitude": 28.47138,
      "radius": 3,
      "zoom": 11,
      "region": "vin",
      "name": "Вінниця",
      "normalized_name": "vinnitsa"
    }
  },
  {
    "model": "public.city",
    "pk": 6,
    "fields": {
      "has_districts": false,
      "latitude": 49.62388,
      "longitude": 27.85867,
      "radius": 1,
      "zoom": 12,
      "region": "vin",
      "name": "Війтівці",
      "normalized_name": "zhdanovka"
    }
  },
  {
    "model": "public.city",
    "pk": 7,
    "fields": {
      "has_districts": false,
      "latitude": 48.81087,
      "longitude": 29.39919,
      "radius": 2,
      "zoom": 12,
      "region": "vin",
      "name": "Гайсин",
      "normalized_name": "gaysin"
    }
  },
  {
    "model": "public.city",
    "pk": 8,
    "fields": {
      "has_districts": false,
      "latitude": 49.08773,
      "longitude": 28.3482,
      "radius": 2,
      "zoom": 12,
      "region": "vin",
      "name": "Гнівань",
      "normalized_name": "gnivan"
    }
  },
  {
    "model": "public.city",
    "pk": 9,
    "fields": {
      "has_districts": false,
      "latitude": 48.95181,
      "longitude": 29.53069,
      "radius": 1,
      "zoom": 8,
      "region": "vin",
      "name": "Городок",
      "normalized_name": "gorodok"
    }
  },
  {
    "model": "public.city",
    "pk": 10,
    "fields": {
      "has_districts": false,
      "latitude": 49.28418,
      "longitude": 28.53348,
      "radius": 1,
      "zoom": 10,
      "region": "vin",
      "name": "Десна",
      "normalized_name": "desna_55"
    }
  },
  {
    "model": "public.city",
    "pk": 11,
    "fields": {
      "has_districts": false,
      "latitude": 48.66213,
      "longitude": 27.58746,
      "radius": 1,
      "zoom": 12,
      "region": "vin",
      "name": "Дружба",
      "normalized_name": "druzhba_631"
    }
  },
  {
    "model": "public.city",
    "pk": 12,
    "fields": {
      "has_districts": false,
      "latitude": 49.03835,
      "longitude": 28.10556,
      "radius": 5,
      "zoom": 12,
      "region": "vin",
      "name": "Жмеринка",
      "normalized_name": "zhmerinka"
    }
  },
  {
    "model": "public.city",
    "pk": 13,
    "fields": {
      "has_districts": false,
      "latitude": 48.96263,
      "longitude": 29.3857,
      "radius": 1,
      "zoom": 12,
      "region": "vin",
      "name": "Іванівка",
      "normalized_name": "ivanovka_5415"
    }
  },
  {
    "model": "public.city",
    "pk": 14,
    "fields": {
      "has_districts": false,
      "latitude": 49.17899,
      "longitude": 29.21266,
      "radius": 1,
      "zoom": 12,
      "region": "vin",
      "name": "Іллінецьке",
      "normalized_name": "ilinetskoe"
    }
  },
  {
    "model": "public.city",
    "pk": 15,
    "fields": {
      "has_districts": false,
      "latitude": 49.10708,
      "longitude": 29.20811,
      "radius": 3,
      "zoom": 12,
      "region": "vin",
      "name": "Іллінці",
      "normalized_name": "ilintsy"
    }
  },
  {
    "model": "public.city",
    "pk": 16,
    "fields": {
      "has_districts": false,
      "latitude": 49.71332,
      "longitude": 28.8384,
      "radius": 2,
      "zoom": 12,
      "region": "vin",
      "name": "Козятин",
      "normalized_name": "kazatin"
    }
  },
  {
    "model": "public.city",
    "pk": 17,
    "fields": {
      "has_districts": false,
      "latitude": 45.32686,
      "longitude": 35.74313,
      "radius": 2,
      "zoom": 12,
      "region": "vin",
      "name": "Калинівка",
      "normalized_name": "kalinovka"
    }
  },
  {
    "model": "public.city",
    "pk": 18,
    "fields": {
      "has_districts": false,
      "latitude": 48.384,
      "longitude": 28.863,
      "radius": 0,
      "zoom": 12,
      "region": "vin",
      "name": "Крижопіль",
      "normalized_name": "kryzhopol"
    }
  },
  {
    "model": "public.city",
    "pk": 19,
    "fields": {
      "has_districts": false,
      "latitude": 48.68381,
      "longitude": 29.24763,
      "radius": 2,
      "zoom": 12,
      "region": "vin",
      "name": "Ладижин",
      "normalized_name": "ladyzhin"
    }
  },
  {
    "model": "public.city",
    "pk": 20,
    "fields": {
      "has_districts": false,
      "latitude": 49.22665,
      "longitude": 29.05481,
      "radius": 1,
      "zoom": 12,
      "region": "vin",
      "name": "Липовець",
      "normalized_name": "lipovets"
    }
  },
  {
    "model": "public.city",
    "pk": 21,
    "fields": {
      "has_districts": false,
      "latitude": 48.44657,
      "longitude": 27.79478,
      "radius": 3,
      "zoom": 12,
      "region": "vin",
      "name": "Могилів-Подільський",
      "normalized_name": "mogilyev-podolskiy"
    }
  },
  {
    "model": "public.city",
    "pk": 22,
    "fields": {
      "has_districts": false,
      "latitude": 48.97444,
      "longitude": 28.84464,
      "radius": 2,
      "zoom": 12,
      "region": "vin",
      "name": "Немирів",
      "normalized_name": "nemirov"
    }
  },
  {
    "model": "public.city",
    "pk": 23,
    "fields": {
      "has_districts": false,
      "latitude": 48.10904,
      "longitude": 29.34969,
      "radius": 1,
      "zoom": 12,
      "region": "vin",
      "name": "Новоукраїнка",
      "normalized_name": "novoukrainka_67"
    }
  },
  {
    "model": "public.city",
    "pk": 24,
    "fields": {
      "has_districts": false,
      "latitude": 49.10554,
      "longitude": 29.0186,
      "radius": 1,
      "zoom": 12,
      "region": "vin",
      "name": "Пісочин",
      "normalized_name": "pesochin"
    }
  },
  {
    "model": "public.city",
    "pk": 25,
    "fields": {
      "has_districts": false,
      "latitude": 49.48631,
      "longitude": 29.26858,
      "radius": 4,
      "zoom": 12,
      "region": "vin",
      "name": "Погребище",
      "normalized_name": "pogrebishche"
    }
  },
  {
    "model": "public.city",
    "pk": 26,
    "fields": {
      "has_districts": false,
      "latitude": 49.31239,
      "longitude": 28.47462,
      "radius": 1,
      "zoom": 12,
      "region": "vin",
      "name": "Стрижавка",
      "normalized_name": "strizhavka"
    }
  },
  {
    "model": "public.city",
    "pk": 27,
    "fields": {
      "has_districts": false,
      "latitude": 48.67534,
      "longitude": 28.85295,
      "radius": 3,
      "zoom": 12,
      "region": "vin",
      "name": "Тульчин",
      "normalized_name": "tulchin"
    }
  },
  {
    "model": "public.city",
    "pk": 28,
    "fields": {
      "has_districts": false,
      "latitude": 49.5563,
      "longitude": 27.9451,
      "radius": 1,
      "zoom": 8,
      "region": "vin",
      "name": "Хмільник",
      "normalized_name": "khmelnik"
    }
  },
  {
    "model": "public.city",
    "pk": 29,
    "fields": {
      "has_districts": false,
      "latitude": 48.76289,
      "longitude": 28.06905,
      "radius": 1,
      "zoom": 12,
      "region": "vin",
      "name": "Шаргород",
      "normalized_name": "shargorod"
    }
  },
  {
    "model": "public.city",
    "pk": 30,
    "fields": {
      "has_districts": false,
      "latitude": 48.24314,
      "longitude": 28.28515,
      "radius": 1,
      "zoom": 12,
      "region": "vin",
      "name": "Ямпіль",
      "normalized_name": "yampol"
    }
  },
  {
    "model": "public.city",
    "pk": 31,
    "fields": {
      "has_districts": false,
      "latitude": 50.65099,
      "longitude": 24.28809,
      "radius": 1,
      "zoom": 12,
      "region": "vol",
      "name": "Біличі",
      "normalized_name": "belichi"
    }
  },
  {
    "model": "public.city",
    "pk": 32,
    "fields": {
      "has_districts": false,
      "latitude": 50.77172,
      "longitude": 24.10897,
      "radius": 1,
      "zoom": 12,
      "region": "vol",
      "name": "Бортнів",
      "normalized_name": "bortnov"
    }
  },
  {
    "model": "public.city",
    "pk": 33,
    "fields": {
      "has_districts": false,
      "latitude": 51.76567,
      "longitude": 24.52744,
      "radius": 0,
      "zoom": 13,
      "region": "vol",
      "name": "Броди",
      "normalized_name": "brody"
    }
  },
  {
    "model": "public.city",
    "pk": 34,
    "fields": {
      "has_districts": false,
      "latitude": 50.7085,
      "longitude": 24.17722,
      "radius": 1,
      "zoom": 12,
      "region": "vol",
      "name": "Будятичі",
      "normalized_name": "budyatichi"
    }
  },
  {
    "model": "public.city",
    "pk": 35,
    "fields": {
      "has_districts": false,
      "latitude": 50.75148,
      "longitude": 24.12587,
      "radius": 1,
      "zoom": 12,
      "region": "vol",
      "name": "Бужанка",
      "normalized_name": "buzhanka"
    }
  },
  {
    "model": "public.city",
    "pk": 36,
    "fields": {
      "has_districts": false,
      "latitude": 50.72002,
      "longitude": 24.44278,
      "radius": 1,
      "zoom": 12,
      "region": "vol",
      "name": "Бужковичі",
      "normalized_name": "buzhkovichi"
    }
  },
  {
    "model": "public.city",
    "pk": 37,
    "fields": {
      "has_districts": false,
      "latitude": 50.76424,
      "longitude": 24.16189,
      "radius": 1,
      "zoom": 12,
      "region": "vol",
      "name": "Верхнів",
      "normalized_name": "verhnov"
    }
  },
  {
    "model": "public.city",
    "pk": 38,
    "fields": {
      "has_districts": false,
      "latitude": 50.8482,
      "longitude": 24.32566,
      "radius": 4,
      "zoom": 12,
      "region": "vol",
      "name": "Володимир-Волинський",
      "normalized_name": "vladimir-volynskiy"
    }
  },
  {
    "model": "public.city",
    "pk": 39,
    "fields": {
      "has_districts": false,
      "latitude": 50.72076,
      "longitude": 24.10886,
      "radius": 1,
      "zoom": 12,
      "region": "vol",
      "name": "Волиця-Морозовецька",
      "normalized_name": "volitsa-morozovitskaya"
    }
  },
  {
    "model": "public.city",
    "pk": 40,
    "fields": {
      "has_districts": false,
      "latitude": 50.50057,
      "longitude": 24.76365,
      "radius": 1,
      "zoom": 12,
      "region": "vol",
      "name": "Горохів",
      "normalized_name": "gorokhov"
    }
  },
  {
    "model": "public.city",
    "pk": 41,
    "fields": {
      "has_districts": false,
      "latitude": 50.68696,
      "longitude": 24.24373,
      "radius": 1,
      "zoom": 12,
      "region": "vol",
      "name": "Грибовиця",
      "normalized_name": "gribovitsa"
    }
  },
  {
    "model": "public.city",
    "pk": 42,
    "fields": {
      "has_districts": false,
      "latitude": 50.55315,
      "longitude": 24.47432,
      "radius": 1,
      "zoom": 12,
      "region": "vol",
      "name": "Грушів",
      "normalized_name": "grushev_8815"
    }
  },
  {
    "model": "public.city",
    "pk": 43,
    "fields": {
      "has_districts": false,
      "latitude": 50.72878,
      "longitude": 24.22902,
      "radius": 1,
      "zoom": 12,
      "region": "vol",
      "name": "Гряди",
      "normalized_name": "gryady"
    }
  },
  {
    "model": "public.city",
    "pk": 44,
    "fields": {
      "has_districts": false,
      "latitude": 50.60842,
      "longitude": 24.36832,
      "radius": 1,
      "zoom": 12,
      "region": "vol",
      "name": "Долинка",
      "normalized_name": "dolinka_8819"
    }
  },
  {
    "model": "public.city",
    "pk": 45,
    "fields": {
      "has_districts": false,
      "latitude": 50.66,
      "longitude": 24.36,
      "radius": 1,
      "zoom": 12,
      "region": "vol",
      "name": "Древині",
      "normalized_name": "drevini"
    }
  },
  {
    "model": "public.city",
    "pk": 46,
    "fields": {
      "has_districts": false,
      "latitude": 50.63771,
      "longitude": 24.3666,
      "radius": 1,
      "zoom": 12,
      "region": "vol",
      "name": "Іваничі",
      "normalized_name": "ivanichi"
    }
  },
  {
    "model": "public.city",
    "pk": 47,
    "fields": {
      "has_districts": false,
      "latitude": 50.79557,
      "longitude": 24.1197,
      "radius": 1,
      "zoom": 12,
      "region": "vol",
      "name": "Іванів",
      "normalized_name": "ivanov_8791"
    }
  },
  {
    "model": "public.city",
    "pk": 48,
    "fields": {
      "has_districts": false,
      "latitude": 50.43996,
      "longitude": 25.06229,
      "radius": 1,
      "zoom": 12,
      "region": "vol",
      "name": "Іванівка",
      "normalized_name": "ivanovka_8793"
    }
  },
  {
    "model": "public.city",
    "pk": 49,
    "fields": {
      "has_districts": false,
      "latitude": 51.62374,
      "longitude": 24.96914,
      "radius": 3,
      "zoom": 12,
      "region": "vol",
      "name": "Камінь-Каширський",
      "normalized_name": "kamen-kashirskiy"
    }
  },
  {
    "model": "public.city",
    "pk": 50,
    "fields": {
      "has_districts": false,
      "latitude": 51.20566,
      "longitude": 24.71296,
      "radius": 4,
      "zoom": 12,
      "region": "vol",
      "name": "Ковель",
      "normalized_name": "kovel"
    }
  },
  {
    "model": "public.city",
    "pk": 51,
    "fields": {
      "has_districts": false,
      "latitude": 50.91754,
      "longitude": 25.21493,
      "radius": 1,
      "zoom": 12,
      "region": "vol",
      "name": "Кременець",
      "normalized_name": "kremenets"
    }
  },
  {
    "model": "public.city",
    "pk": 52,
    "fields": {
      "has_districts": false,
      "latitude": 50.74158,
      "longitude": 25.28939,
      "radius": 5,
      "zoom": 12,
      "region": "vol",
      "name": "Луцьк",
      "normalized_name": "lutsk"
    }
  },
  {
    "model": "public.city",
    "pk": 53,
    "fields": {
      "has_districts": false,
      "latitude": 51.76426,
      "longitude": 25.50725,
      "radius": 1,
      "zoom": 12,
      "region": "vol",
      "name": "Любешів",
      "normalized_name": "lyubeshov"
    }
  },
  {
    "model": "public.city",
    "pk": 54,
    "fields": {
      "has_districts": false,
      "latitude": 51.488,
      "longitude": 23.93,
      "radius": 1,
      "zoom": 12,
      "region": "vol",
      "name": "Маневичі",
      "normalized_name": "manevichi"
    }
  },
  {
    "model": "public.city",
    "pk": 55,
    "fields": {
      "has_districts": false,
      "latitude": 50.73218,
      "longitude": 24.17034,
      "radius": 2,
      "zoom": 12,
      "region": "vol",
      "name": "Нововолинськ",
      "normalized_name": "novovolynsk"
    }
  },
  {
    "model": "public.city",
    "pk": 56,
    "fields": {
      "has_districts": false,
      "latitude": 51.66143,
      "longitude": 24.52335,
      "radius": 1,
      "zoom": 12,
      "region": "vol",
      "name": "Ратне",
      "normalized_name": "ratno"
    }
  },
  {
    "model": "public.city",
    "pk": 57,
    "fields": {
      "has_districts": false,
      "latitude": 50.91934,
      "longitude": 25.27176,
      "radius": 3,
      "zoom": 12,
      "region": "vol",
      "name": "Рожище",
      "normalized_name": "rozhishche"
    }
  },
  {
    "model": "public.city",
    "pk": 58,
    "fields": {
      "has_districts": false,
      "latitude": 51.08885,
      "longitude": 24.52672,
      "radius": 1,
      "zoom": 12,
      "region": "vol",
      "name": "Турійськ",
      "normalized_name": "turiysk"
    }
  },
  {
    "model": "public.city",
    "pk": 59,
    "fields": {
      "has_districts": false,
      "latitude": 50.8609,
      "longitude": 24.15,
      "radius": 1,
      "zoom": 12,
      "region": "vol",
      "name": "Устилуг",
      "normalized_name": "ustilug"
    }
  },
  {
    "model": "public.city",
    "pk": 60,
    "fields": {
      "has_districts": false,
      "latitude": 50.83495,
      "longitude": 25.88299,
      "radius": 1,
      "zoom": 12,
      "region": "vol",
      "name": "Цумань",
      "normalized_name": "tsuman"
    }
  },
  {
    "model": "public.city",
    "pk": 61,
    "fields": {
      "has_districts": false,
      "latitude": 47.66053,
      "longitude": 33.72054,
      "radius": 3,
      "zoom": 12,
      "region": "dnp",
      "name": "Апостолове",
      "normalized_name": "apostolovo"
    }
  },
  {
    "model": "public.city",
    "pk": 62,
    "fields": {
      "has_districts": false,
      "latitude": 48.46885,
      "longitude": 35.99314,
      "radius": 1,
      "zoom": 12,
      "region": "dnp",
      "name": "Богуслав",
      "normalized_name": "boguslav"
    }
  },
  {
    "model": "public.city",
    "pk": 63,
    "fields": {
      "has_districts": false,
      "latitude": 47.53436,
      "longitude": 33.71713,
      "radius": 1,
      "zoom": 12,
      "region": "dnp",
      "name": "Велика Костромка",
      "normalized_name": "velikaya-kostromka"
    }
  },
  {
    "model": "public.city",
    "pk": 64,
    "fields": {
      "has_districts": false,
      "latitude": 48.64791,
      "longitude": 34.33985,
      "radius": 2,
      "zoom": 12,
      "region": "dnp",
      "name": "Верхньодніпровськ",
      "normalized_name": "verkhnedneprovsk"
    }
  },
  {
    "model": "public.city",
    "pk": 65,
    "fields": {
      "has_districts": false,
      "latitude": 48.31907,
      "longitude": 35.25385,
      "radius": 1,
      "zoom": 10,
      "region": "dnp",
      "name": "Веселе",
      "normalized_name": "veseloe_415"
    }
  },
  {
    "model": "public.city",
    "pk": 66,
    "fields": {
      "has_districts": false,
      "latitude": 47.74562,
      "longitude": 33.62697,
      "radius": 1,
      "zoom": 12,
      "region": "dnp",
      "name": "Веселі Чумаки",
      "normalized_name": "veselye-chumaki"
    }
  },
  {
    "model": "public.city",
    "pk": 67,
    "fields": {
      "has_districts": false,
      "latitude": 47.65178,
      "longitude": 33.5505,
      "radius": 1,
      "zoom": 12,
      "region": "dnp",
      "name": "Володимирівка",
      "normalized_name": "vladimirovka_11211"
    }
  },
  {
    "model": "public.city",
    "pk": 68,
    "fields": {
      "has_districts": false,
      "latitude": 48.48012,
      "longitude": 34.01573,
      "radius": 2,
      "zoom": 12,
      "region": "dnp",
      "name": "Вільногірськ",
      "normalized_name": "volnogorsk"
    }
  },
  {
    "model": "public.city",
    "pk": 69,
    "fields": {
      "has_districts": false,
      "latitude": 47.78333,
      "longitude": 33.58278,
      "radius": 1,
      "zoom": 12,
      "region": "dnp",
      "name": "Вільне",
      "normalized_name": "volnoe_11205"
    }
  },
  {
    "model": "public.city",
    "pk": 70,
    "fields": {
      "has_districts": false,
      "latitude": 47.61366,
      "longitude": 34.03288,
      "radius": 1,
      "zoom": 12,
      "region": "dnp",
      "name": "Гранітне",
      "normalized_name": "granitnoe_11213"
    }
  },
  {
    "model": "public.city",
    "pk": 71,
    "fields": {
      "has_districts": true,
      "latitude": 48.46612,
      "longitude": 34.95952,
      "radius": 15,
      "zoom": 12,
      "region": "dnp",
      "name": "Дніпро",
      "normalized_name": "dnepr"
    }
  },
  {
    "model": "public.city",
    "pk": 72,
    "fields": {
      "has_districts": false,
      "latitude": 47.80612,
      "longitude": 33.60766,
      "radius": 1,
      "zoom": 12,
      "region": "dnp",
      "name": "Єлізаветпілля",
      "normalized_name": "elizavetpole"
    }
  },
  {
    "model": "public.city",
    "pk": 73,
    "fields": {
      "has_districts": false,
      "latitude": 47.78167,
      "longitude": 33.83556,
      "radius": 1,
      "zoom": 12,
      "region": "dnp",
      "name": "Жовте",
      "normalized_name": "zheltoe"
    }
  },
  {
    "model": "public.city",
    "pk": 74,
    "fields": {
      "has_districts": false,
      "latitude": 48.34874,
      "longitude": 33.50207,
      "radius": 3,
      "zoom": 12,
      "region": "dnp",
      "name": "Жовті  Води",
      "normalized_name": "zhyeltye-vody"
    }
  },
  {
    "model": "public.city",
    "pk": 75,
    "fields": {
      "has_districts": false,
      "latitude": 48.5,
      "longitude": 34.62,
      "radius": 1,
      "zoom": 12,
      "region": "dnp",
      "name": "Запорізьке",
      "normalized_name": "zaporozhskoe"
    }
  },
  {
    "model": "public.city",
    "pk": 76,
    "fields": {
      "has_districts": false,
      "latitude": 48.5,
      "longitude": 34.62,
      "radius": 6,
      "zoom": 12,
      "region": "dnp",
      "name": "Кам'янське",
      "normalized_name": "kamenskoe"
    }
  },
  {
    "model": "public.city",
    "pk": 77,
    "fields": {
      "has_districts": true,
      "latitude": 47.90591,
      "longitude": 33.39411,
      "radius": 7,
      "zoom": 12,
      "region": "dnp",
      "name": "Кривий Ріг",
      "normalized_name": "krivoyrog"
    }
  },
  {
    "model": "public.city",
    "pk": 78,
    "fields": {
      "has_districts": false,
      "latitude": 47.65008,
      "longitude": 34.59816,
      "radius": 5,
      "zoom": 12,
      "region": "dnp",
      "name": "Марганець",
      "normalized_name": "marganets"
    }
  },
  {
    "model": "public.city",
    "pk": 79,
    "fields": {
      "has_districts": false,
      "latitude": 47.58812,
      "longitude": 34.38242,
      "radius": 8,
      "zoom": 12,
      "region": "dnp",
      "name": "Нікополь",
      "normalized_name": "nikopol"
    }
  },
  {
    "model": "public.city",
    "pk": 80,
    "fields": {
      "has_districts": false,
      "latitude": 48.63296,
      "longitude": 35.22416,
      "radius": 4,
      "zoom": 12,
      "region": "dnp",
      "name": "Новомосковськ",
      "normalized_name": "novomoskovsk"
    }
  },
  {
    "model": "public.city",
    "pk": 81,
    "fields": {
      "has_districts": false,
      "latitude": 47.65815,
      "longitude": 34.07272,
      "radius": 5,
      "zoom": 12,
      "region": "dnp",
      "name": "Орджонікідзе",
      "normalized_name": "ordzhonikidze"
    }
  },
  {
    "model": "public.city",
    "pk": 82,
    "fields": {
      "has_districts": false,
      "latitude": 48.52678,
      "longitude": 35.87343,
      "radius": 5,
      "zoom": 12,
      "region": "dnp",
      "name": "Павлоград",
      "normalized_name": "pavlograd"
    }
  },
  {
    "model": "public.city",
    "pk": 83,
    "fields": {
      "has_districts": false,
      "latitude": 49.014,
      "longitude": 35.36444,
      "radius": 1,
      "zoom": 12,
      "region": "dnp",
      "name": "Перещепине",
      "normalized_name": "pereshchepino"
    }
  },
  {
    "model": "public.city",
    "pk": 84,
    "fields": {
      "has_districts": false,
      "latitude": 48.34615,
      "longitude": 36.40076,
      "radius": 2,
      "zoom": 12,
      "region": "dnp",
      "name": "Першотравенськ",
      "normalized_name": "pershotravensk"
    }
  },
  {
    "model": "public.city",
    "pk": 85,
    "fields": {
      "has_districts": false,
      "latitude": 48.57721,
      "longitude": 35.11148,
      "radius": 2,
      "zoom": 12,
      "region": "dnp",
      "name": "Підгородне",
      "normalized_name": "podgorodnoe"
    }
  },
  {
    "model": "public.city",
    "pk": 86,
    "fields": {
      "has_districts": false,
      "latitude": 48.81443,
      "longitude": 35.53064,
      "radius": 1,
      "zoom": 12,
      "region": "dnp",
      "name": "Попасна",
      "normalized_name": "popasnaya_289"
    }
  },
  {
    "model": "public.city",
    "pk": 87,
    "fields": {
      "has_districts": false,
      "latitude": 48.41163,
      "longitude": 33.69416,
      "radius": 1,
      "zoom": 12,
      "region": "dnp",
      "name": "П'ятихатки",
      "normalized_name": "pyatikhatki"
    }
  },
  {
    "model": "public.city",
    "pk": 88,
    "fields": {
      "has_districts": false,
      "latitude": 48.31672,
      "longitude": 35.52278,
      "radius": 1,
      "zoom": 12,
      "region": "dnp",
      "name": "Синельникове",
      "normalized_name": "sinelnikovo"
    }
  },
  {
    "model": "public.city",
    "pk": 89,
    "fields": {
      "has_districts": false,
      "latitude": 48.53728,
      "longitude": 29.97159,
      "radius": 1,
      "zoom": 12,
      "region": "dnp",
      "name": "Тернівка",
      "normalized_name": "ternovka"
    }
  },
  {
    "model": "public.city",
    "pk": 90,
    "fields": {
      "has_districts": false,
      "latitude": 48.75,
      "longitude": 34.78,
      "radius": 1,
      "zoom": 9,
      "region": "dnp",
      "name": "Чаплинка",
      "normalized_name": "chaplinka"
    }
  },
  {
    "model": "public.city",
    "pk": 91,
    "fields": {
      "has_districts": false,
      "latitude": 48.14877,
      "longitude": 37.74762,
      "radius": 3,
      "zoom": 12,
      "region": "don",
      "name": "Авдіївка",
      "normalized_name": "avdeevka"
    }
  },
  {
    "model": "public.city",
    "pk": 92,
    "fields": {
      "has_districts": false,
      "latitude": 47.79,
      "longitude": 38.49,
      "radius": 3,
      "zoom": 12,
      "region": "don",
      "name": "Амвросіївка",
      "normalized_name": "amvrosievka"
    }
  },
  {
    "model": "public.city",
    "pk": 93,
    "fields": {
      "has_districts": false,
      "latitude": 47.59766,
      "longitude": 37.48932,
      "radius": 2,
      "zoom": 12,
      "region": "don",
      "name": "Волноваха",
      "normalized_name": "volnovakha"
    }
  },
  {
    "model": "public.city",
    "pk": 94,
    "fields": {
      "has_districts": false,
      "latitude": 48.30423,
      "longitude": 38.01689,
      "radius": 8,
      "zoom": 12,
      "region": "don",
      "name": "Горлівка",
      "normalized_name": "gorlovka"
    }
  },
  {
    "model": "public.city",
    "pk": 95,
    "fields": {
      "has_districts": false,
      "latitude": 48.10934,
      "longitude": 36.06191,
      "radius": 1,
      "zoom": 12,
      "region": "don",
      "name": "Дебальцеве",
      "normalized_name": "debaltsevo"
    }
  },
  {
    "model": "public.city",
    "pk": 96,
    "fields": {
      "has_districts": false,
      "latitude": 48.46542,
      "longitude": 37.08498,
      "radius": 3,
      "zoom": 12,
      "region": "don",
      "name": "Добропілля",
      "normalized_name": "dobropole"
    }
  },
  {
    "model": "public.city",
    "pk": 97,
    "fields": {
      "has_districts": false,
      "latitude": 47.75129,
      "longitude": 37.67897,
      "radius": 4,
      "zoom": 12,
      "region": "don",
      "name": "Докучаєвськ",
      "normalized_name": "dokuchaevsk"
    }
  },
  {
    "model": "public.city",
    "pk": 98,
    "fields": {
      "has_districts": true,
      "latitude": 47.98721,
      "longitude": 37.7622,
      "radius": 15,
      "zoom": 12,
      "region": "don",
      "name": "Донецьк",
      "normalized_name": "donetsk"
    }
  },
  {
    "model": "public.city",
    "pk": 99,
    "fields": {
      "has_districts": false,
      "latitude": 48.61966,
      "longitude": 37.52514,
      "radius": 4,
      "zoom": 12,
      "region": "don",
      "name": "Дружківка",
      "normalized_name": "druzhkovka"
    }
  },
  {
    "model": "public.city",
    "pk": 100,
    "fields": {
      "has_districts": false,
      "latitude": 48.21656,
      "longitude": 38.19878,
      "radius": 5,
      "zoom": 12,
      "region": "don",
      "name": "Єнакієве",
      "normalized_name": "enakievo"
    }
  },
  {
    "model": "public.city",
    "pk": 101,
    "fields": {
      "has_districts": false,
      "latitude": 47.42798,
      "longitude": 37.40433,
      "radius": 2,
      "zoom": 12,
      "region": "don",
      "name": "Кіровське",
      "normalized_name": "kirovskoe"
    }
  },
  {
    "model": "public.city",
    "pk": 102,
    "fields": {
      "has_districts": false,
      "latitude": 48.53105,
      "longitude": 37.71183,
      "radius": 5,
      "zoom": 12,
      "region": "don",
      "name": "Костянтинівка",
      "normalized_name": "konstantinovka"
    }
  },
  {
    "model": "public.city",
    "pk": 103,
    "fields": {
      "has_districts": false,
      "latitude": 48.72055,
      "longitude": 37.55937,
      "radius": 6,
      "zoom": 12,
      "region": "don",
      "name": "Краматорськ",
      "normalized_name": "kramatorsk"
    }
  },
  {
    "model": "public.city",
    "pk": 104,
    "fields": {
      "has_districts": false,
      "latitude": 48.98976,
      "longitude": 37.805,
      "radius": 4,
      "zoom": 12,
      "region": "don",
      "name": "Красний лиман",
      "normalized_name": "krasnyyliman"
    }
  },
  {
    "model": "public.city",
    "pk": 105,
    "fields": {
      "has_districts": false,
      "latitude": 48.39977,
      "longitude": 38.04728,
      "radius": 0,
      "zoom": 10,
      "region": "don",
      "name": "Майорськ",
      "normalized_name": "mayorsk"
    }
  },
  {
    "model": "public.city",
    "pk": 106,
    "fields": {
      "has_districts": false,
      "latitude": 48.04467,
      "longitude": 37.9642,
      "radius": 10,
      "zoom": 12,
      "region": "don",
      "name": "Макіївка",
      "normalized_name": "makeevka"
    }
  },
  {
    "model": "public.city",
    "pk": 107,
    "fields": {
      "has_districts": false,
      "latitude": 47.12688,
      "longitude": 37.56024,
      "radius": 7,
      "zoom": 12,
      "region": "don",
      "name": "Маріуполь",
      "normalized_name": "mariupol"
    }
  },
  {
    "model": "public.city",
    "pk": 108,
    "fields": {
      "has_districts": false,
      "latitude": 48.30306,
      "longitude": 37.26313,
      "radius": 3,
      "zoom": 12,
      "region": "don",
      "name": "Мирноград",
      "normalized_name": "dimitrov"
    }
  },
  {
    "model": "public.city",
    "pk": 109,
    "fields": {
      "has_districts": false,
      "latitude": 48.20353,
      "longitude": 37.33476,
      "radius": 1,
      "zoom": 12,
      "region": "don",
      "name": "Новогродівка",
      "normalized_name": "novogrodovka"
    }
  },
  {
    "model": "public.city",
    "pk": 110,
    "fields": {
      "has_districts": false,
      "latitude": 48.28196,
      "longitude": 37.17688,
      "radius": 4,
      "zoom": 12,
      "region": "don",
      "name": "Покровськ",
      "normalized_name": "krasnoarmeysk"
    }
  },
  {
    "model": "public.city",
    "pk": 111,
    "fields": {
      "has_districts": false,
      "latitude": 48.14751,
      "longitude": 37.29714,
      "radius": 4,
      "zoom": 12,
      "region": "don",
      "name": "Селидове",
      "normalized_name": "selidovo"
    }
  },
  {
    "model": "public.city",
    "pk": 112,
    "fields": {
      "has_districts": false,
      "latitude": 48.8463,
      "longitude": 37.60723,
      "radius": 5,
      "zoom": 12,
      "region": "don",
      "name": "Слов'янськ",
      "normalized_name": "slavyansk"
    }
  },
  {
    "model": "public.city",
    "pk": 113,
    "fields": {
      "has_districts": false,
      "latitude": 48.01694,
      "longitude": 38.76583,
      "radius": 4,
      "zoom": 12,
      "region": "don",
      "name": "Сніжне",
      "normalized_name": "snezhnoe"
    }
  },
  {
    "model": "public.city",
    "pk": 114,
    "fields": {
      "has_districts": false,
      "latitude": 48.67811,
      "longitude": 38.10114,
      "radius": 1,
      "zoom": 12,
      "region": "don",
      "name": "Соледар",
      "normalized_name": "soledar"
    }
  },
  {
    "model": "public.city",
    "pk": 115,
    "fields": {
      "has_districts": false,
      "latitude": 48.01878,
      "longitude": 38.63942,
      "radius": 5,
      "zoom": 12,
      "region": "don",
      "name": "Торез",
      "normalized_name": "torez"
    }
  },
  {
    "model": "public.city",
    "pk": 116,
    "fields": {
      "has_districts": false,
      "latitude": 48.39665,
      "longitude": 37.84604,
      "radius": 5,
      "zoom": 12,
      "region": "don",
      "name": "Торецьк",
      "normalized_name": "dzerzhinsk"
    }
  },
  {
    "model": "public.city",
    "pk": 117,
    "fields": {
      "has_districts": false,
      "latitude": 47.77979,
      "longitude": 37.24902,
      "radius": 2,
      "zoom": 12,
      "region": "don",
      "name": "Вугледар",
      "normalized_name": "ugledar"
    }
  },
  {
    "model": "public.city",
    "pk": 118,
    "fields": {
      "has_districts": false,
      "latitude": 48.0432,
      "longitude": 38.1394,
      "radius": 4,
      "zoom": 12,
      "region": "don",
      "name": "Харцизьк",
      "normalized_name": "khartsyzsk"
    }
  },
  {
    "model": "public.city",
    "pk": 119,
    "fields": {
      "has_districts": false,
      "latitude": 48.04868,
      "longitude": 38.45053,
      "radius": 1,
      "zoom": 12,
      "region": "don",
      "name": "Шахтарськ",
      "normalized_name": "shakhtyersk"
    }
  },
  {
    "model": "public.city",
    "pk": 120,
    "fields": {
      "has_districts": false,
      "latitude": 48.12214,
      "longitude": 37.87659,
      "radius": 1,
      "zoom": 12,
      "region": "don",
      "name": "Ясинувата",
      "normalized_name": "yasinovataya"
    }
  },
  {
    "model": "public.city",
    "pk": 121,
    "fields": {
      "has_districts": false,
      "latitude": 50.83175,
      "longitude": 27.48236,
      "radius": 1,
      "zoom": 12,
      "region": "zht",
      "name": "Адамове",
      "normalized_name": "adamovo"
    }
  },
  {
    "model": "public.city",
    "pk": 122,
    "fields": {
      "has_districts": false,
      "latitude": 50.73288,
      "longitude": 27.88349,
      "radius": 1,
      "zoom": 12,
      "region": "zht",
      "name": "Андрієвичі",
      "normalized_name": "andreevichi"
    }
  },
  {
    "model": "public.city",
    "pk": 123,
    "fields": {
      "has_districts": false,
      "latitude": 50.01691,
      "longitude": 29.01416,
      "radius": 2,
      "zoom": 12,
      "region": "zht",
      "name": "Андрушівка",
      "normalized_name": "andrushevka"
    }
  },
  {
    "model": "public.city",
    "pk": 124,
    "fields": {
      "has_districts": false,
      "latitude": 50.31235,
      "longitude": 29.33355,
      "radius": 1,
      "zoom": 12,
      "region": "zht",
      "name": "Антонівка",
      "normalized_name": "antonovka_19819"
    }
  },
  {
    "model": "public.city",
    "pk": 125,
    "fields": {
      "has_districts": false,
      "latitude": 50.83258,
      "longitude": 27.96057,
      "radius": 1,
      "zoom": 12,
      "region": "zht",
      "name": "Аполлонівка",
      "normalized_name": "apollonovka_19821"
    }
  },
  {
    "model": "public.city",
    "pk": 126,
    "fields": {
      "has_districts": false,
      "latitude": 50.29365,
      "longitude": 27.63202,
      "radius": 1,
      "zoom": 12,
      "region": "zht",
      "name": "Баранівка",
      "normalized_name": "baranovka_20143"
    }
  },
  {
    "model": "public.city",
    "pk": 127,
    "fields": {
      "has_districts": false,
      "latitude": 50.71341,
      "longitude": 28.0233,
      "radius": 1,
      "zoom": 12,
      "region": "zht",
      "name": "Бараші",
      "normalized_name": "barashi"
    }
  },
  {
    "model": "public.city",
    "pk": 128,
    "fields": {
      "has_districts": false,
      "latitude": 50.74637,
      "longitude": 27.98327,
      "radius": 1,
      "zoom": 12,
      "region": "zht",
      "name": "Бастова рудня",
      "normalized_name": "bastova-rudnya"
    }
  },
  {
    "model": "public.city",
    "pk": 129,
    "fields": {
      "has_districts": false,
      "latitude": 49.89789,
      "longitude": 28.57487,
      "radius": 4,
      "zoom": 12,
      "region": "zht",
      "name": "Бердичів",
      "normalized_name": "berdichev"
    }
  },
  {
    "model": "public.city",
    "pk": 130,
    "fields": {
      "has_districts": false,
      "latitude": 50.86491,
      "longitude": 27.48465,
      "radius": 1,
      "zoom": 12,
      "region": "zht",
      "name": "Березники",
      "normalized_name": "berezniki_19829"
    }
  },
  {
    "model": "public.city",
    "pk": 131,
    "fields": {
      "has_districts": false,
      "latitude": 50.6807,
      "longitude": 28.01383,
      "radius": 1,
      "zoom": 12,
      "region": "zht",
      "name": "Березівка",
      "normalized_name": "berezovka_19827"
    }
  },
  {
    "model": "public.city",
    "pk": 132,
    "fields": {
      "has_districts": false,
      "latitude": 50.68,
      "longitude": 28.13,
      "radius": 1,
      "zoom": 12,
      "region": "zht",
      "name": "Бобриця",
      "normalized_name": "bobritsa"
    }
  },
  {
    "model": "public.city",
    "pk": 133,
    "fields": {
      "has_districts": false,
      "latitude": 50.63628,
      "longitude": 28.02237,
      "radius": 1,
      "zoom": 12,
      "region": "zht",
      "name": "Бобрицька Болярка",
      "normalized_name": "bobritskaya-bolyarka"
    }
  },
  {
    "model": "public.city",
    "pk": 134,
    "fields": {
      "has_districts": false,
      "latitude": 51.15551,
      "longitude": 27.73859,
      "radius": 1,
      "zoom": 12,
      "region": "zht",
      "name": "Болярка",
      "normalized_name": "bolyarka"
    }
  },
  {
    "model": "public.city",
    "pk": 135,
    "fields": {
      "has_districts": false,
      "latitude": 50.68466,
      "longitude": 27.89048,
      "radius": 1,
      "zoom": 12,
      "region": "zht",
      "name": "Бродок",
      "normalized_name": "brodok_19837"
    }
  },
  {
    "model": "public.city",
    "pk": 136,
    "fields": {
      "has_districts": false,
      "latitude": 50.59333,
      "longitude": 28.44727,
      "radius": 1,
      "zoom": 12,
      "region": "zht",
      "name": "Володарськ-Волинський",
      "normalized_name": "volodarsk-volynskiy"
    }
  },
  {
    "model": "public.city",
    "pk": 137,
    "fields": {
      "has_districts": false,
      "latitude": 50.63906,
      "longitude": 27.99822,
      "radius": 1,
      "zoom": 12,
      "region": "zht",
      "name": "Євгенівка",
      "normalized_name": "evgenovka_19797"
    }
  },
  {
    "model": "public.city",
    "pk": 138,
    "fields": {
      "has_districts": false,
      "latitude": 50.61079,
      "longitude": 28.02307,
      "radius": 1,
      "zoom": 12,
      "region": "zht",
      "name": "Єлизаветпіль",
      "normalized_name": "elizavetpol"
    }
  },
  {
    "model": "public.city",
    "pk": 139,
    "fields": {
      "has_districts": false,
      "latitude": 50.872,
      "longitude": 27.808,
      "radius": 1,
      "zoom": 12,
      "region": "zht",
      "name": "Ємільчине",
      "normalized_name": "yemilchino"
    }
  },
  {
    "model": "public.city",
    "pk": 140,
    "fields": {
      "has_districts": true,
      "latitude": 50.26609,
      "longitude": 28.68277,
      "radius": 6,
      "zoom": 12,
      "region": "zht",
      "name": "Житомир",
      "normalized_name": "zhitomir"
    }
  },
  {
    "model": "public.city",
    "pk": 141,
    "fields": {
      "has_districts": false,
      "latitude": 50.76458,
      "longitude": 27.61323,
      "radius": 1,
      "zoom": 12,
      "region": "zht",
      "name": "Ілляшівка",
      "normalized_name": "ilyashovka_19813"
    }
  },
  {
    "model": "public.city",
    "pk": 142,
    "fields": {
      "has_districts": false,
      "latitude": 50.74899,
      "longitude": 28.72065,
      "radius": 1,
      "zoom": 12,
      "region": "zht",
      "name": "Іршанськ",
      "normalized_name": "irshansk"
    }
  },
  {
    "model": "public.city",
    "pk": 143,
    "fields": {
      "has_districts": false,
      "latitude": 50.94667,
      "longitude": 28.63247,
      "radius": 6,
      "zoom": 12,
      "region": "zht",
      "name": "Коростень",
      "normalized_name": "korosten"
    }
  },
  {
    "model": "public.city",
    "pk": 144,
    "fields": {
      "has_districts": false,
      "latitude": 50.31842,
      "longitude": 29.06255,
      "radius": 2,
      "zoom": 12,
      "region": "zht",
      "name": "Коростишів",
      "normalized_name": "korostyshev"
    }
  },
  {
    "model": "public.city",
    "pk": 145,
    "fields": {
      "has_districts": false,
      "latitude": 50.87447,
      "longitude": 27.80429,
      "radius": 1,
      "zoom": 12,
      "region": "zht",
      "name": "Куйбишеве",
      "normalized_name": "kuybyshevo_19801"
    }
  },
  {
    "model": "public.city",
    "pk": 146,
    "fields": {
      "has_districts": false,
      "latitude": 51.22076,
      "longitude": 27.64422,
      "radius": 1,
      "zoom": 12,
      "region": "zht",
      "name": "Олевськ",
      "normalized_name": "olevsk"
    }
  },
  {
    "model": "public.city",
    "pk": 147,
    "fields": {
      "has_districts": false,
      "latitude": 49.96081,
      "longitude": 29.45019,
      "radius": 1,
      "zoom": 12,
      "region": "zht",
      "name": "Попільня",
      "normalized_name": "popelnya"
    }
  },
  {
    "model": "public.city",
    "pk": 148,
    "fields": {
      "has_districts": false,
      "latitude": 50.49653,
      "longitude": 29.23374,
      "radius": 1,
      "zoom": 12,
      "region": "zht",
      "name": "Радомишль",
      "normalized_name": "radomyshl"
    }
  },
  {
    "model": "public.city",
    "pk": 149,
    "fields": {
      "has_districts": false,
      "latitude": 50.15379,
      "longitude": 27.93471,
      "radius": 1,
      "zoom": 12,
      "region": "zht",
      "name": "Романів",
      "normalized_name": "romanov"
    }
  },
  {
    "model": "public.city",
    "pk": 150,
    "fields": {
      "has_districts": false,
      "latitude": 50.45405,
      "longitude": 28.67355,
      "radius": 1,
      "zoom": 12,
      "region": "zht",
      "name": "Черняхів",
      "normalized_name": "chernyahov"
    }
  },
  {
    "model": "public.city",
    "pk": 151,
    "fields": {
      "has_districts": false,
      "latitude": 48.33214,
      "longitude": 22.95153,
      "radius": 1,
      "zoom": 12,
      "region": "zak",
      "name": "Арданово",
      "normalized_name": "ardanovo"
    }
  },
  {
    "model": "public.city",
    "pk": 152,
    "fields": {
      "has_districts": false,
      "latitude": 48.32948,
      "longitude": 23.11653,
      "radius": 1,
      "zoom": 12,
      "region": "zak",
      "name": "Білки",
      "normalized_name": "belki_23499"
    }
  },
  {
    "model": "public.city",
    "pk": 153,
    "fields": {
      "has_districts": false,
      "latitude": 48.19925,
      "longitude": 22.63779,
      "radius": 3,
      "zoom": 12,
      "region": "zak",
      "name": "Берегове",
      "normalized_name": "beregovo"
    }
  },
  {
    "model": "public.city",
    "pk": 154,
    "fields": {
      "has_districts": false,
      "latitude": 48.29355,
      "longitude": 22.92271,
      "radius": 1,
      "zoom": 12,
      "region": "zak",
      "name": "Богаревиця",
      "normalized_name": "bogarevitsa"
    }
  },
  {
    "model": "public.city",
    "pk": 155,
    "fields": {
      "has_districts": false,
      "latitude": 48.62,
      "longitude": 22.3,
      "radius": 1,
      "zoom": 12,
      "region": "zak",
      "name": "Брід",
      "normalized_name": "brod_23503"
    }
  },
  {
    "model": "public.city",
    "pk": 156,
    "fields": {
      "has_districts": false,
      "latitude": 48.40626,
      "longitude": 23.27227,
      "radius": 1,
      "zoom": 12,
      "region": "zak",
      "name": "Бронька",
      "normalized_name": "bronka"
    }
  },
  {
    "model": "public.city",
    "pk": 157,
    "fields": {
      "has_districts": false,
      "latitude": 48.31069,
      "longitude": 22.87541,
      "radius": 1,
      "zoom": 12,
      "region": "zak",
      "name": "Бугорок",
      "normalized_name": "bugorok"
    }
  },
  {
    "model": "public.city",
    "pk": 158,
    "fields": {
      "has_districts": false,
      "latitude": 48.054,
      "longitude": 23.477,
      "radius": 1,
      "zoom": 12,
      "region": "zak",
      "name": "Буштино",
      "normalized_name": "bushtyna"
    }
  },
  {
    "model": "public.city",
    "pk": 159,
    "fields": {
      "has_districts": false,
      "latitude": 48.28753,
      "longitude": 23.08824,
      "radius": 1,
      "zoom": 12,
      "region": "zak",
      "name": "Велика Розтока",
      "normalized_name": "velikaya-rostoka"
    }
  },
  {
    "model": "public.city",
    "pk": 160,
    "fields": {
      "has_districts": false,
      "latitude": 47.97397,
      "longitude": 24.00863,
      "radius": 1,
      "zoom": 12,
      "region": "zak",
      "name": "Великий Бичків",
      "normalized_name": "velikiy-bychkov"
    }
  },
  {
    "model": "public.city",
    "pk": 161,
    "fields": {
      "has_districts": false,
      "latitude": 48.27069,
      "longitude": 23.14908,
      "radius": 1,
      "zoom": 12,
      "region": "zak",
      "name": "Великий Раковець",
      "normalized_name": "velikiy-rakovets"
    }
  },
  {
    "model": "public.city",
    "pk": 162,
    "fields": {
      "has_districts": false,
      "latitude": 48.14854,
      "longitude": 23.03026,
      "radius": 4,
      "zoom": 12,
      "region": "zak",
      "name": "Виноградів",
      "normalized_name": "vinogradov"
    }
  },
  {
    "model": "public.city",
    "pk": 163,
    "fields": {
      "has_districts": false,
      "latitude": 48.29125,
      "longitude": 22.90554,
      "radius": 1,
      "zoom": 12,
      "region": "zak",
      "name": "Воловиця",
      "normalized_name": "volovitsa"
    }
  },
  {
    "model": "public.city",
    "pk": 164,
    "fields": {
      "has_districts": false,
      "latitude": 48.04825,
      "longitude": 23.42861,
      "radius": 1,
      "zoom": 12,
      "region": "zak",
      "name": "Вишково",
      "normalized_name": "vyshkovo"
    }
  },
  {
    "model": "public.city",
    "pk": 165,
    "fields": {
      "has_districts": false,
      "latitude": 48.173,
      "longitude": 23.889,
      "radius": 0,
      "zoom": 11,
      "region": "zak",
      "name": "Дубове",
      "normalized_name": "dubovoye"
    }
  },
  {
    "model": "public.city",
    "pk": 166,
    "fields": {
      "has_districts": false,
      "latitude": 48.44329,
      "longitude": 22.96393,
      "radius": 1,
      "zoom": 12,
      "region": "zak",
      "name": "Івашковиця",
      "normalized_name": "ivashkovitsa"
    }
  },
  {
    "model": "public.city",
    "pk": 167,
    "fields": {
      "has_districts": false,
      "latitude": 48.35,
      "longitude": 23.08,
      "radius": 1,
      "zoom": 12,
      "region": "zak",
      "name": "Ільниця",
      "normalized_name": "ilnitsa"
    }
  },
  {
    "model": "public.city",
    "pk": 168,
    "fields": {
      "has_districts": false,
      "latitude": 48.29294,
      "longitude": 23.19271,
      "radius": 1,
      "zoom": 12,
      "region": "zak",
      "name": "Імстичово",
      "normalized_name": "imstichevo"
    }
  },
  {
    "model": "public.city",
    "pk": 169,
    "fields": {
      "has_districts": false,
      "latitude": 48.3167,
      "longitude": 23.05,
      "radius": 2,
      "zoom": 12,
      "region": "zak",
      "name": "Іршава",
      "normalized_name": "irshava"
    }
  },
  {
    "model": "public.city",
    "pk": 170,
    "fields": {
      "has_districts": false,
      "latitude": 45.27195,
      "longitude": 35.7825,
      "radius": 1,
      "zoom": 12,
      "region": "zak",
      "name": "Королево",
      "normalized_name": "korolevo"
    }
  },
  {
    "model": "public.city",
    "pk": 171,
    "fields": {
      "has_districts": false,
      "latitude": 48.52255,
      "longitude": 23.50514,
      "radius": 1,
      "zoom": 12,
      "region": "zak",
      "name": "Міжгір'я",
      "normalized_name": "mezhgorye"
    }
  },
  {
    "model": "public.city",
    "pk": 172,
    "fields": {
      "has_districts": false,
      "latitude": 48.44111,
      "longitude": 22.72995,
      "radius": 3,
      "zoom": 12,
      "region": "zak",
      "name": "Мукачеве",
      "normalized_name": "mukachevo"
    }
  },
  {
    "model": "public.city",
    "pk": 173,
    "fields": {
      "has_districts": false,
      "latitude": 48.26603,
      "longitude": 23.06574,
      "radius": 1,
      "zoom": 12,
      "region": "zak",
      "name": "Вільхівка",
      "normalized_name": "olhovka_23507"
    }
  },
  {
    "model": "public.city",
    "pk": 174,
    "fields": {
      "has_districts": false,
      "latitude": 48.05,
      "longitude": 24.20122,
      "radius": 4,
      "zoom": 12,
      "region": "zak",
      "name": "Рахів",
      "normalized_name": "rakhov"
    }
  },
  {
    "model": "public.city",
    "pk": 175,
    "fields": {
      "has_districts": false,
      "latitude": 48.54582,
      "longitude": 22.99334,
      "radius": 2,
      "zoom": 12,
      "region": "zak",
      "name": "Свалява",
      "normalized_name": "svalyava"
    }
  },
  {
    "model": "public.city",
    "pk": 176,
    "fields": {
      "has_districts": false,
      "latitude": 47.96,
      "longitude": 23.867,
      "radius": 2,
      "zoom": 11,
      "region": "zak",
      "name": "Солотвино",
      "normalized_name": "solotvina"
    }
  },
  {
    "model": "public.city",
    "pk": 177,
    "fields": {
      "has_districts": false,
      "latitude": 48.01115,
      "longitude": 23.57584,
      "radius": 2,
      "zoom": 12,
      "region": "zak",
      "name": "Тячів",
      "normalized_name": "tyachev"
    }
  },
  {
    "model": "public.city",
    "pk": 178,
    "fields": {
      "has_districts": false,
      "latitude": 48.61981,
      "longitude": 22.29811,
      "radius": 5,
      "zoom": 12,
      "region": "zak",
      "name": "Ужгород",
      "normalized_name": "uzhgorod"
    }
  },
  {
    "model": "public.city",
    "pk": 179,
    "fields": {
      "has_districts": false,
      "latitude": 48.18232,
      "longitude": 23.30492,
      "radius": 3,
      "zoom": 12,
      "region": "zak",
      "name": "Хуст",
      "normalized_name": "khust"
    }
  },
  {
    "model": "public.city",
    "pk": 180,
    "fields": {
      "has_districts": false,
      "latitude": 48.43032,
      "longitude": 22.20905,
      "radius": 1,
      "zoom": 12,
      "region": "zak",
      "name": "Чоп",
      "normalized_name": "chop"
    }
  },
  {
    "model": "public.city",
    "pk": 181,
    "fields": {
      "has_districts": false,
      "latitude": 46.69745,
      "longitude": 35.16501,
      "radius": 1,
      "zoom": 12,
      "region": "zap",
      "name": "Якимівка",
      "normalized_name": "akimovka"
    }
  },
  {
    "model": "public.city",
    "pk": 182,
    "fields": {
      "has_districts": false,
      "latitude": 47.09626,
      "longitude": 36.58303,
      "radius": 1,
      "zoom": 12,
      "region": "zap",
      "name": "Андріївка",
      "normalized_name": "andreevka_24935"
    }
  },
  {
    "model": "public.city",
    "pk": 183,
    "fields": {
      "has_districts": false,
      "latitude": 46.89591,
      "longitude": 36.61024,
      "radius": 1,
      "zoom": 12,
      "region": "zap",
      "name": "Андрівка",
      "normalized_name": "androvka"
    }
  },
  {
    "model": "public.city",
    "pk": 184,
    "fields": {
      "has_districts": false,
      "latitude": 47.9746,
      "longitude": 35.44372,
      "radius": 1,
      "zoom": 12,
      "region": "zap",
      "name": "Біляївка",
      "normalized_name": "belyaevka_475"
    }
  },
  {
    "model": "public.city",
    "pk": 185,
    "fields": {
      "has_districts": false,
      "latitude": 46.74858,
      "longitude": 36.8095,
      "radius": 5,
      "zoom": 12,
      "region": "zap",
      "name": "Бердянськ",
      "normalized_name": "berdyansk"
    }
  },
  {
    "model": "public.city",
    "pk": 186,
    "fields": {
      "has_districts": false,
      "latitude": 46.96906,
      "longitude": 37.003,
      "radius": 1,
      "zoom": 12,
      "region": "zap",
      "name": "Бердянське",
      "normalized_name": "berdyanskoe_24993"
    }
  },
  {
    "model": "public.city",
    "pk": 187,
    "fields": {
      "has_districts": false,
      "latitude": 48.06568,
      "longitude": 35.88729,
      "radius": 1,
      "zoom": 12,
      "region": "zap",
      "name": "Берестове",
      "normalized_name": "berestove_24995"
    }
  },
  {
    "model": "public.city",
    "pk": 188,
    "fields": {
      "has_districts": false,
      "latitude": 47.43333,
      "longitude": 35.28333,
      "radius": 1,
      "zoom": 12,
      "region": "zap",
      "name": "Василівка",
      "normalized_name": "vasilevka"
    }
  },
  {
    "model": "public.city",
    "pk": 189,
    "fields": {
      "has_districts": false,
      "latitude": 47.01849,
      "longitude": 34.90878,
      "radius": 1,
      "zoom": 12,
      "region": "zap",
      "name": "Веселе",
      "normalized_name": "veseloe"
    }
  },
  {
    "model": "public.city",
    "pk": 190,
    "fields": {
      "has_districts": false,
      "latitude": 47.94207,
      "longitude": 35.43,
      "radius": 1,
      "zoom": 12,
      "region": "zap",
      "name": "Вільнянськ",
      "normalized_name": "volnyansk"
    }
  },
  {
    "model": "public.city",
    "pk": 191,
    "fields": {
      "has_districts": false,
      "latitude": 47.05659,
      "longitude": 36.9044,
      "radius": 1,
      "zoom": 12,
      "region": "zap",
      "name": "Глодове",
      "normalized_name": "glodovo"
    }
  },
  {
    "model": "public.city",
    "pk": 192,
    "fields": {
      "has_districts": false,
      "latitude": 47.65538,
      "longitude": 36.26874,
      "radius": 5,
      "zoom": 12,
      "region": "zap",
      "name": "Гуляйполе",
      "normalized_name": "gulyaypole"
    }
  },
  {
    "model": "public.city",
    "pk": 193,
    "fields": {
      "has_districts": false,
      "latitude": 47.05745,
      "longitude": 36.47196,
      "radius": 1,
      "zoom": 12,
      "region": "zap",
      "name": "Дахно",
      "normalized_name": "dahno"
    }
  },
  {
    "model": "public.city",
    "pk": 194,
    "fields": {
      "has_districts": false,
      "latitude": 46.97409,
      "longitude": 37.05676,
      "radius": 1,
      "zoom": 12,
      "region": "zap",
      "name": "Деревецьке",
      "normalized_name": "derevetskoe"
    }
  },
  {
    "model": "public.city",
    "pk": 195,
    "fields": {
      "has_districts": false,
      "latitude": 47.38297,
      "longitude": 34.99126,
      "radius": 3,
      "zoom": 12,
      "region": "zap",
      "name": "Дніпрорудне",
      "normalized_name": "dneprorudnoe"
    }
  },
  {
    "model": "public.city",
    "pk": 196,
    "fields": {
      "has_districts": true,
      "latitude": 47.85204,
      "longitude": 35.15528,
      "radius": 8,
      "zoom": 12,
      "region": "zap",
      "name": "Запоріжжя",
      "normalized_name": "zaporozhe"
    }
  },
  {
    "model": "public.city",
    "pk": 197,
    "fields": {
      "has_districts": false,
      "latitude": 47.48,
      "longitude": 34.75,
      "radius": 1,
      "zoom": 12,
      "region": "zap",
      "name": "Іванівка",
      "normalized_name": "ivanovka_24933"
    }
  },
  {
    "model": "public.city",
    "pk": 198,
    "fields": {
      "has_districts": false,
      "latitude": 47.4695,
      "longitude": 34.4054,
      "radius": 6,
      "zoom": 12,
      "region": "zap",
      "name": "Кам'янка-Дніпровська",
      "normalized_name": "kamenka-dneprovskaya"
    }
  },
  {
    "model": "public.city",
    "pk": 199,
    "fields": {
      "has_districts": false,
      "latitude": 47.35555,
      "longitude": 36.64209,
      "radius": 1,
      "zoom": 12,
      "region": "zap",
      "name": "Куйбишеве",
      "normalized_name": "kuybyshevo"
    }
  },
  {
    "model": "public.city",
    "pk": 200,
    "fields": {
      "has_districts": false,
      "latitude": 47.71113,
      "longitude": 35.21261,
      "radius": 1,
      "zoom": 12,
      "region": "zap",
      "name": "Кушугум",
      "normalized_name": "kushugum"
    }
  },
  {
    "model": "public.city",
    "pk": 201,
    "fields": {
      "has_districts": false,
      "latitude": 46.83637,
      "longitude": 35.37354,
      "radius": 6,
      "zoom": 12,
      "region": "zap",
      "name": "Мелітополь",
      "normalized_name": "melitopol"
    }
  },
  {
    "model": "public.city",
    "pk": 202,
    "fields": {
      "has_districts": false,
      "latitude": 47.25937,
      "longitude": 35.21816,
      "radius": 1,
      "zoom": 12,
      "region": "zap",
      "name": "Михайлівка",
      "normalized_name": "mihaylovka"
    }
  },
  {
    "model": "public.city",
    "pk": 203,
    "fields": {
      "has_districts": false,
      "latitude": 47.2084,
      "longitude": 35.58992,
      "radius": 1,
      "zoom": 12,
      "region": "zap",
      "name": "Молочанськ",
      "normalized_name": "molochansk"
    }
  },
  {
    "model": "public.city",
    "pk": 204,
    "fields": {
      "has_districts": false,
      "latitude": 47.57086,
      "longitude": 35.78896,
      "radius": 4,
      "zoom": 12,
      "region": "zap",
      "name": "Оріхів",
      "normalized_name": "orekhov"
    }
  },
  {
    "model": "public.city",
    "pk": 205,
    "fields": {
      "has_districts": false,
      "latitude": 46.78069,
      "longitude": 34.9015,
      "radius": 1,
      "zoom": 12,
      "region": "zap",
      "name": "Петрівка",
      "normalized_name": "petrovka"
    }
  },
  {
    "model": "public.city",
    "pk": 206,
    "fields": {
      "has_districts": false,
      "latitude": 47.47268,
      "longitude": 36.26255,
      "radius": 5,
      "zoom": 12,
      "region": "zap",
      "name": "Пологи",
      "normalized_name": "pologi"
    }
  },
  {
    "model": "public.city",
    "pk": 207,
    "fields": {
      "has_districts": false,
      "latitude": 46.72968,
      "longitude": 36.35471,
      "radius": 3,
      "zoom": 12,
      "region": "zap",
      "name": "Приморськ",
      "normalized_name": "primorsk"
    }
  },
  {
    "model": "public.city",
    "pk": 208,
    "fields": {
      "has_districts": false,
      "latitude": 47.3964,
      "longitude": 37.06989,
      "radius": 1,
      "zoom": 12,
      "region": "zap",
      "name": "Розівка",
      "normalized_name": "rozovka"
    }
  },
  {
    "model": "public.city",
    "pk": 209,
    "fields": {
      "has_districts": false,
      "latitude": 47.24641,
      "longitude": 35.70984,
      "radius": 4,
      "zoom": 12,
      "region": "zap",
      "name": "Токмак",
      "normalized_name": "tokmak"
    }
  },
  {
    "model": "public.city",
    "pk": 210,
    "fields": {
      "has_districts": false,
      "latitude": 47.49938,
      "longitude": 34.63662,
      "radius": 3,
      "zoom": 12,
      "region": "zap",
      "name": "Енергодар",
      "normalized_name": "energodar"
    }
  },
  {
    "model": "public.city",
    "pk": 211,
    "fields": {
      "has_districts": false,
      "latitude": 48.67,
      "longitude": 24.46,
      "radius": 1,
      "zoom": 12,
      "region": "if",
      "name": "Бабче",
      "normalized_name": "babche"
    }
  },
  {
    "model": "public.city",
    "pk": 212,
    "fields": {
      "has_districts": false,
      "latitude": 48.80783,
      "longitude": 24.54095,
      "radius": 1,
      "zoom": 12,
      "region": "if",
      "name": "Богородчани",
      "normalized_name": "bogorodchany_775"
    }
  },
  {
    "model": "public.city",
    "pk": 213,
    "fields": {
      "has_districts": false,
      "latitude": 48.808,
      "longitude": 24.538,
      "radius": 1,
      "zoom": 12,
      "region": "if",
      "name": "Богородчани",
      "normalized_name": "bogorodchany"
    }
  },
  {
    "model": "public.city",
    "pk": 214,
    "fields": {
      "has_districts": false,
      "latitude": 48.71709,
      "longitude": 24.27436,
      "radius": 1,
      "zoom": 12,
      "region": "if",
      "name": "Богрівка",
      "normalized_name": "bogrovka"
    }
  },
  {
    "model": "public.city",
    "pk": 215,
    "fields": {
      "has_districts": false,
      "latitude": 49.31055,
      "longitude": 24.77765,
      "radius": 1,
      "zoom": 12,
      "region": "if",
      "name": "Бойки",
      "normalized_name": "boyko"
    }
  },
  {
    "model": "public.city",
    "pk": 216,
    "fields": {
      "has_districts": false,
      "latitude": 49.07,
      "longitude": 23.85489,
      "radius": 1,
      "zoom": 12,
      "region": "if",
      "name": "Болехів",
      "normalized_name": "bolekhov"
    }
  },
  {
    "model": "public.city",
    "pk": 217,
    "fields": {
      "has_districts": false,
      "latitude": 49.26306,
      "longitude": 24.62931,
      "radius": 1,
      "zoom": 12,
      "region": "if",
      "name": "Бурштин",
      "normalized_name": "burshtyn"
    }
  },
  {
    "model": "public.city",
    "pk": 218,
    "fields": {
      "has_districts": false,
      "latitude": 49.11,
      "longitude": 24.73,
      "radius": 1,
      "zoom": 12,
      "region": "if",
      "name": "Галич",
      "normalized_name": "galich"
    }
  },
  {
    "model": "public.city",
    "pk": 219,
    "fields": {
      "has_districts": false,
      "latitude": 48.79269,
      "longitude": 24.44244,
      "radius": 1,
      "zoom": 12,
      "region": "if",
      "name": "Глибівка",
      "normalized_name": "glybovka"
    }
  },
  {
    "model": "public.city",
    "pk": 220,
    "fields": {
      "has_districts": false,
      "latitude": 48.6724,
      "longitude": 25.49625,
      "radius": 2,
      "zoom": 12,
      "region": "if",
      "name": "Городенка",
      "normalized_name": "gorodenka"
    }
  },
  {
    "model": "public.city",
    "pk": 221,
    "fields": {
      "has_districts": false,
      "latitude": 48.53288,
      "longitude": 24.62507,
      "radius": 1,
      "zoom": 12,
      "region": "if",
      "name": "Делятин",
      "normalized_name": "delyatin"
    }
  },
  {
    "model": "public.city",
    "pk": 222,
    "fields": {
      "has_districts": false,
      "latitude": 48.10678,
      "longitude": 24.67851,
      "radius": 1,
      "zoom": 12,
      "region": "if",
      "name": "Дземброня",
      "normalized_name": "berestechko"
    }
  },
  {
    "model": "public.city",
    "pk": 223,
    "fields": {
      "has_districts": false,
      "latitude": 48.97336,
      "longitude": 24.00331,
      "radius": 2,
      "zoom": 12,
      "region": "if",
      "name": "Долина",
      "normalized_name": "dolina"
    }
  },
  {
    "model": "public.city",
    "pk": 224,
    "fields": {
      "has_districts": false,
      "latitude": 48.83,
      "longitude": 24.63,
      "radius": 1,
      "zoom": 12,
      "region": "if",
      "name": "Іваниківка",
      "normalized_name": "ivanikovka"
    }
  },
  {
    "model": "public.city",
    "pk": 225,
    "fields": {
      "has_districts": false,
      "latitude": 48.91819,
      "longitude": 24.71343,
      "radius": 2,
      "zoom": 12,
      "region": "if",
      "name": "Івано-Франківськ",
      "normalized_name": "ivano-frankovsk"
    }
  },
  {
    "model": "public.city",
    "pk": 226,
    "fields": {
      "has_districts": false,
      "latitude": 49.04462,
      "longitude": 24.35833,
      "radius": 5,
      "zoom": 12,
      "region": "if",
      "name": "Калуш",
      "normalized_name": "kalush"
    }
  },
  {
    "model": "public.city",
    "pk": 227,
    "fields": {
      "has_districts": false,
      "latitude": 48.53,
      "longitude": 25.04,
      "radius": 0,
      "zoom": 12,
      "region": "if",
      "name": "Коломия",
      "normalized_name": "kolomyya"
    }
  },
  {
    "model": "public.city",
    "pk": 228,
    "fields": {
      "has_districts": false,
      "latitude": 49.1,
      "longitude": 25.63,
      "radius": 1,
      "zoom": 8,
      "region": "if",
      "name": "Косів",
      "normalized_name": "kosov"
    }
  },
  {
    "model": "public.city",
    "pk": 229,
    "fields": {
      "has_districts": false,
      "latitude": 48.90543,
      "longitude": 24.71191,
      "radius": 1,
      "zoom": 12,
      "region": "if",
      "name": "Крихівці",
      "normalized_name": "krihovtsy"
    }
  },
  {
    "model": "public.city",
    "pk": 230,
    "fields": {
      "has_districts": false,
      "latitude": 48.55037,
      "longitude": 24.74667,
      "radius": 1,
      "zoom": 12,
      "region": "if",
      "name": "Ланчин",
      "normalized_name": "lanchin"
    }
  },
  {
    "model": "public.city",
    "pk": 231,
    "fields": {
      "has_districts": false,
      "latitude": 48.63,
      "longitude": 24.58,
      "radius": 2,
      "zoom": 12,
      "region": "if",
      "name": "Надвірна",
      "normalized_name": "nadvornaya"
    }
  },
  {
    "model": "public.city",
    "pk": 232,
    "fields": {
      "has_districts": false,
      "latitude": 48.81,
      "longitude": 24.19,
      "radius": 1,
      "zoom": 12,
      "region": "if",
      "name": "Перегінське",
      "normalized_name": "pereginskoye"
    }
  },
  {
    "model": "public.city",
    "pk": 233,
    "fields": {
      "has_districts": false,
      "latitude": 49.40994,
      "longitude": 24.6106,
      "radius": 1,
      "zoom": 12,
      "region": "if",
      "name": "Рогатин",
      "normalized_name": "rogatin"
    }
  },
  {
    "model": "public.city",
    "pk": 234,
    "fields": {
      "has_districts": false,
      "latitude": 48.45,
      "longitude": 25.57,
      "radius": 2,
      "zoom": 12,
      "region": "if",
      "name": "Снятин",
      "normalized_name": "snyatyn"
    }
  },
  {
    "model": "public.city",
    "pk": 235,
    "fields": {
      "has_districts": false,
      "latitude": 48.85807,
      "longitude": 24.5788,
      "radius": 1,
      "zoom": 12,
      "region": "if",
      "name": "Стебник",
      "normalized_name": "stebnik"
    }
  },
  {
    "model": "public.city",
    "pk": 236,
    "fields": {
      "has_districts": false,
      "latitude": 48.8588,
      "longitude": 24.99681,
      "radius": 1,
      "zoom": 12,
      "region": "if",
      "name": "Тлумач",
      "normalized_name": "tlumach"
    }
  },
  {
    "model": "public.city",
    "pk": 237,
    "fields": {
      "has_districts": false,
      "latitude": 48.9,
      "longitude": 24.85,
      "radius": 1,
      "zoom": 12,
      "region": "if",
      "name": "Тисмениця",
      "normalized_name": "tysmenitsa"
    }
  },
  {
    "model": "public.city",
    "pk": 238,
    "fields": {
      "has_districts": false,
      "latitude": 48.9196,
      "longitude": 24.74273,
      "radius": 1,
      "zoom": 12,
      "region": "if",
      "name": "Угорники",
      "normalized_name": "ugorniki"
    }
  },
  {
    "model": "public.city",
    "pk": 239,
    "fields": {
      "has_districts": false,
      "latitude": 48.98532,
      "longitude": 24.81405,
      "radius": 1,
      "zoom": 12,
      "region": "if",
      "name": "Узин",
      "normalized_name": "uzin_198"
    }
  },
  {
    "model": "public.city",
    "pk": 240,
    "fields": {
      "has_districts": false,
      "latitude": 48.45863,
      "longitude": 24.55961,
      "radius": 1,
      "zoom": 12,
      "region": "if",
      "name": "Яремче",
      "normalized_name": "yaremche"
    }
  },
  {
    "model": "public.city",
    "pk": 241,
    "fields": {
      "has_districts": false,
      "latitude": 50.35695,
      "longitude": 31.31731,
      "radius": 1,
      "zoom": 12,
      "region": "ko",
      "name": "Баришівка",
      "normalized_name": "baryshevka"
    }
  },
  {
    "model": "public.city",
    "pk": 242,
    "fields": {
      "has_districts": false,
      "latitude": 49.80567,
      "longitude": 30.08994,
      "radius": 6,
      "zoom": 12,
      "region": "ko",
      "name": "Біла Церква",
      "normalized_name": "belayatserkov"
    }
  },
  {
    "model": "public.city",
    "pk": 243,
    "fields": {
      "has_districts": false,
      "latitude": 50.31213,
      "longitude": 31.46259,
      "radius": 3,
      "zoom": 12,
      "region": "ko",
      "name": "Березань",
      "normalized_name": "berezan"
    }
  },
  {
    "model": "public.city",
    "pk": 244,
    "fields": {
      "has_districts": false,
      "latitude": 50.35334,
      "longitude": 30.95723,
      "radius": 3,
      "zoom": 12,
      "region": "ko",
      "name": "Бориспіль",
      "normalized_name": "borispol"
    }
  },
  {
    "model": "public.city",
    "pk": 245,
    "fields": {
      "has_districts": false,
      "latitude": 50.33759,
      "longitude": 30.2976,
      "radius": 3,
      "zoom": 12,
      "region": "ko",
      "name": "Боярка",
      "normalized_name": "boyarka"
    }
  },
  {
    "model": "public.city",
    "pk": 246,
    "fields": {
      "has_districts": false,
      "latitude": 50.50568,
      "longitude": 30.77972,
      "radius": 5,
      "zoom": 12,
      "region": "ko",
      "name": "Бровари",
      "normalized_name": "brovary"
    }
  },
  {
    "model": "public.city",
    "pk": 247,
    "fields": {
      "has_districts": false,
      "latitude": 50.55324,
      "longitude": 30.21973,
      "radius": 2,
      "zoom": 11,
      "region": "ko",
      "name": "Буча",
      "normalized_name": "bucha"
    }
  },
  {
    "model": "public.city",
    "pk": 248,
    "fields": {
      "has_districts": false,
      "latitude": 50.18119,
      "longitude": 30.31497,
      "radius": 4,
      "zoom": 12,
      "region": "ko",
      "name": "Васильків",
      "normalized_name": "vasilkov"
    }
  },
  {
    "model": "public.city",
    "pk": 249,
    "fields": {
      "has_districts": false,
      "latitude": 50.38803,
      "longitude": 30.37538,
      "radius": 3,
      "zoom": 12,
      "region": "ko",
      "name": "Вишневе",
      "normalized_name": "vishnevoe"
    }
  },
  {
    "model": "public.city",
    "pk": 250,
    "fields": {
      "has_districts": false,
      "latitude": 49.52653,
      "longitude": 29.91972,
      "radius": 1,
      "zoom": 12,
      "region": "ko",
      "name": "Володарка",
      "normalized_name": "volodarka"
    }
  },
  {
    "model": "public.city",
    "pk": 251,
    "fields": {
      "has_districts": false,
      "latitude": 50.58414,
      "longitude": 30.48661,
      "radius": 3,
      "zoom": 12,
      "region": "ko",
      "name": "Вишгород",
      "normalized_name": "vyshgorod"
    }
  },
  {
    "model": "public.city",
    "pk": 252,
    "fields": {
      "has_districts": false,
      "latitude": 50.26232,
      "longitude": 30.28928,
      "radius": 1,
      "zoom": 12,
      "region": "ko",
      "name": "Глеваха",
      "normalized_name": "glevaxa"
    }
  },
  {
    "model": "public.city",
    "pk": 253,
    "fields": {
      "has_districts": false,
      "latitude": 50.57914,
      "longitude": 30.21507,
      "radius": 1,
      "zoom": 12,
      "region": "ko",
      "name": "Гостомель",
      "normalized_name": "gostomel"
    }
  },
  {
    "model": "public.city",
    "pk": 254,
    "fields": {
      "has_districts": false,
      "latitude": 50.93302,
      "longitude": 29.90043,
      "radius": 1,
      "zoom": 12,
      "region": "ko",
      "name": "Іваньків",
      "normalized_name": "ivankov"
    }
  },
  {
    "model": "public.city",
    "pk": 255,
    "fields": {
      "has_districts": false,
      "latitude": 50.51752,
      "longitude": 30.2593,
      "radius": 4,
      "zoom": 12,
      "region": "ko",
      "name": "Ірпінь",
      "normalized_name": "irpen"
    }
  },
  {
    "model": "public.city",
    "pk": 256,
    "fields": {
      "has_districts": false,
      "latitude": 49.85366,
      "longitude": 30.80997,
      "radius": 3,
      "zoom": 12,
      "region": "ko",
      "name": "Кагарлик",
      "normalized_name": "kagarlyk"
    }
  },
  {
    "model": "public.city",
    "pk": 257,
    "fields": {
      "has_districts": true,
      "latitude": 50.44095,
      "longitude": 30.52718,
      "radius": 15,
      "zoom": 12,
      "region": "ko",
      "name": "Київ",
      "normalized_name": "kiev"
    }
  },
  {
    "model": "public.city",
    "pk": 258,
    "fields": {
      "has_districts": false,
      "latitude": 50.48838,
      "longitude": 30.33309,
      "radius": 1,
      "zoom": 12,
      "region": "ko",
      "name": "Коцюбинське",
      "normalized_name": "kotsyubinskoe"
    }
  },
  {
    "model": "public.city",
    "pk": 259,
    "fields": {
      "has_districts": false,
      "latitude": 50.07114,
      "longitude": 31.43607,
      "radius": 3,
      "zoom": 12,
      "region": "ko",
      "name": "Переяслав-Хмельницький",
      "normalized_name": "pereyaslav-khmelnitskiy"
    }
  },
  {
    "model": "public.city",
    "pk": 260,
    "fields": {
      "has_districts": false,
      "latitude": 51.40649,
      "longitude": 30.05399,
      "radius": 2,
      "zoom": 12,
      "region": "ko",
      "name": "Прип'ять",
      "normalized_name": "pripyat"
    }
  },
  {
    "model": "public.city",
    "pk": 261,
    "fields": {
      "has_districts": false,
      "latitude": 49.96577,
      "longitude": 31.04327,
      "radius": 1,
      "zoom": 12,
      "region": "ko",
      "name": "Ржищів",
      "normalized_name": "rzhishchev"
    }
  },
  {
    "model": "public.city",
    "pk": 262,
    "fields": {
      "has_districts": false,
      "latitude": 49.69118,
      "longitude": 30.47802,
      "radius": 1,
      "zoom": 12,
      "region": "ko",
      "name": "Рокитне",
      "normalized_name": "rokitnoe"
    }
  },
  {
    "model": "public.city",
    "pk": 263,
    "fields": {
      "has_districts": false,
      "latitude": 51.52198,
      "longitude": 30.75601,
      "radius": 2,
      "zoom": 12,
      "region": "ko",
      "name": "Славутич",
      "normalized_name": "slavutich"
    }
  },
  {
    "model": "public.city",
    "pk": 264,
    "fields": {
      "has_districts": false,
      "latitude": 49.562,
      "longitude": 30.49739,
      "radius": 1,
      "zoom": 12,
      "region": "ko",
      "name": "Тараща",
      "normalized_name": "tarashcha"
    }
  },
  {
    "model": "public.city",
    "pk": 265,
    "fields": {
      "has_districts": false,
      "latitude": 49.36639,
      "longitude": 29.65838,
      "radius": 1,
      "zoom": 12,
      "region": "ko",
      "name": "Тетіїв",
      "normalized_name": "tetiev"
    }
  },
  {
    "model": "public.city",
    "pk": 266,
    "fields": {
      "has_districts": false,
      "latitude": 49.82302,
      "longitude": 30.44036,
      "radius": 5,
      "zoom": 12,
      "region": "ko",
      "name": "Узин",
      "normalized_name": "uzin"
    }
  },
  {
    "model": "public.city",
    "pk": 267,
    "fields": {
      "has_districts": false,
      "latitude": 50.15288,
      "longitude": 30.74202,
      "radius": 1,
      "zoom": 12,
      "region": "ko",
      "name": "Українка",
      "normalized_name": "ukrainka"
    }
  },
  {
    "model": "public.city",
    "pk": 268,
    "fields": {
      "has_districts": false,
      "latitude": 50.08408,
      "longitude": 29.91255,
      "radius": 4,
      "zoom": 12,
      "region": "ko",
      "name": "Фастів",
      "normalized_name": "fastov"
    }
  },
  {
    "model": "public.city",
    "pk": 269,
    "fields": {
      "has_districts": false,
      "latitude": 51.27461,
      "longitude": 30.24034,
      "radius": 1,
      "zoom": 12,
      "region": "ko",
      "name": "Чорнобиль",
      "normalized_name": "chernobyl"
    }
  },
  {
    "model": "public.city",
    "pk": 270,
    "fields": {
      "has_districts": false,
      "latitude": 50.2563,
      "longitude": 31.77996,
      "radius": 1,
      "zoom": 12,
      "region": "ko",
      "name": "Яготин",
      "normalized_name": "yagotin"
    }
  },
  {
    "model": "public.city",
    "pk": 271,
    "fields": {
      "has_districts": false,
      "latitude": 48.67373,
      "longitude": 33.11053,
      "radius": 5,
      "zoom": 12,
      "region": "kir",
      "name": "Олександрія",
      "normalized_name": "aleksandriya"
    }
  },
  {
    "model": "public.city",
    "pk": 272,
    "fields": {
      "has_districts": false,
      "latitude": 47.86062,
      "longitude": 32.01089,
      "radius": 1,
      "zoom": 12,
      "region": "kir",
      "name": "Апрелівка",
      "normalized_name": "aprelevka_27361"
    }
  },
  {
    "model": "public.city",
    "pk": 273,
    "fields": {
      "has_districts": false,
      "latitude": 47.85758,
      "longitude": 32.10442,
      "radius": 1,
      "zoom": 12,
      "region": "kir",
      "name": "Березівка",
      "normalized_name": "berezovka_27363"
    }
  },
  {
    "model": "public.city",
    "pk": 274,
    "fields": {
      "has_districts": false,
      "latitude": 47.89197,
      "longitude": 32.29326,
      "radius": 1,
      "zoom": 12,
      "region": "kir",
      "name": "Береславка",
      "normalized_name": "bereslavka"
    }
  },
  {
    "model": "public.city",
    "pk": 275,
    "fields": {
      "has_districts": false,
      "latitude": 48.05818,
      "longitude": 32.16108,
      "radius": 2,
      "zoom": 12,
      "region": "kir",
      "name": "Бобринець",
      "normalized_name": "bobrinets"
    }
  },
  {
    "model": "public.city",
    "pk": 276,
    "fields": {
      "has_districts": false,
      "latitude": 47.99988,
      "longitude": 31.9898,
      "radius": 1,
      "zoom": 12,
      "region": "kir",
      "name": "Бобринка",
      "normalized_name": "bobrinka"
    }
  },
  {
    "model": "public.city",
    "pk": 277,
    "fields": {
      "has_districts": false,
      "latitude": 48.02973,
      "longitude": 32.36776,
      "radius": 1,
      "zoom": 12,
      "region": "kir",
      "name": "Борисівка",
      "normalized_name": "borisovka_27375"
    }
  },
  {
    "model": "public.city",
    "pk": 278,
    "fields": {
      "has_districts": false,
      "latitude": 48.09706,
      "longitude": 31.84503,
      "radius": 1,
      "zoom": 12,
      "region": "kir",
      "name": "Бредихине",
      "normalized_name": "bredihino"
    }
  },
  {
    "model": "public.city",
    "pk": 279,
    "fields": {
      "has_districts": false,
      "latitude": 47.81494,
      "longitude": 31.88612,
      "radius": 1,
      "zoom": 12,
      "region": "kir",
      "name": "Буховецьке",
      "normalized_name": "buhovetskoe"
    }
  },
  {
    "model": "public.city",
    "pk": 280,
    "fields": {
      "has_districts": false,
      "latitude": 48.00563,
      "longitude": 31.94467,
      "radius": 1,
      "zoom": 12,
      "region": "kir",
      "name": "Варламівка",
      "normalized_name": "varlamovka_27381"
    }
  },
  {
    "model": "public.city",
    "pk": 281,
    "fields": {
      "has_districts": false,
      "latitude": 47.95018,
      "longitude": 32.26806,
      "radius": 1,
      "zoom": 12,
      "region": "kir",
      "name": "Василівка",
      "normalized_name": "vasilevka_27383"
    }
  },
  {
    "model": "public.city",
    "pk": 282,
    "fields": {
      "has_districts": false,
      "latitude": 48.07777,
      "longitude": 32.04962,
      "radius": 1,
      "zoom": 12,
      "region": "kir",
      "name": "Великодрюкове",
      "normalized_name": "velikodryukovo"
    }
  },
  {
    "model": "public.city",
    "pk": 283,
    "fields": {
      "has_districts": false,
      "latitude": 48.03227,
      "longitude": 32.06508,
      "radius": 1,
      "zoom": 12,
      "region": "kir",
      "name": "Вереміївка",
      "normalized_name": "veremeevka_27387"
    }
  },
  {
    "model": "public.city",
    "pk": 284,
    "fields": {
      "has_districts": false,
      "latitude": 49.11516,
      "longitude": 33.28016,
      "radius": 1,
      "zoom": 12,
      "region": "kir",
      "name": "Власівка",
      "normalized_name": "vlasovka"
    }
  },
  {
    "model": "public.city",
    "pk": 285,
    "fields": {
      "has_districts": false,
      "latitude": 48.33443,
      "longitude": 29.8683,
      "radius": 2,
      "zoom": 12,
      "region": "kir",
      "name": "Гайворон",
      "normalized_name": "gayvoron"
    }
  },
  {
    "model": "public.city",
    "pk": 286,
    "fields": {
      "has_districts": false,
      "latitude": 48.11326,
      "longitude": 32.76587,
      "radius": 3,
      "zoom": 12,
      "region": "kir",
      "name": "Долинська",
      "normalized_name": "dolinskaya"
    }
  },
  {
    "model": "public.city",
    "pk": 287,
    "fields": {
      "has_districts": false,
      "latitude": 48.618,
      "longitude": 33.1398,
      "radius": 1,
      "zoom": 12,
      "region": "kir",
      "name": "Звенигородка",
      "normalized_name": "zvenigorodka_36"
    }
  },
  {
    "model": "public.city",
    "pk": 288,
    "fields": {
      "has_districts": false,
      "latitude": 48.71444,
      "longitude": 32.66989,
      "radius": 3,
      "zoom": 12,
      "region": "kir",
      "name": "Знам'янка",
      "normalized_name": "znamenka"
    }
  },
  {
    "model": "public.city",
    "pk": 289,
    "fields": {
      "has_districts": false,
      "latitude": 48.18912,
      "longitude": 32.8716,
      "radius": 1,
      "zoom": 12,
      "region": "kir",
      "name": "Іванівка",
      "normalized_name": "ivanovka_27359"
    }
  },
  {
    "model": "public.city",
    "pk": 290,
    "fields": {
      "has_districts": false,
      "latitude": 48.64495,
      "longitude": 31.63801,
      "radius": 4,
      "zoom": 12,
      "region": "kir",
      "name": "Комсомольське",
      "normalized_name": "komsomolskoye_609"
    }
  },
  {
    "model": "public.city",
    "pk": 291,
    "fields": {
      "has_districts": true,
      "latitude": 48.51797,
      "longitude": 32.23378,
      "radius": 7,
      "zoom": 12,
      "region": "kir",
      "name": "Кропивницький",
      "normalized_name": "kropivnitskiy"
    }
  },
  {
    "model": "public.city",
    "pk": 292,
    "fields": {
      "has_districts": false,
      "latitude": 48.64359,
      "longitude": 31.62943,
      "radius": 1,
      "zoom": 12,
      "region": "kir",
      "name": "Мала Виска",
      "normalized_name": "malayaviska"
    }
  },
  {
    "model": "public.city",
    "pk": 293,
    "fields": {
      "has_districts": false,
      "latitude": 48.55814,
      "longitude": 32.90167,
      "radius": 1,
      "zoom": 12,
      "region": "kir",
      "name": "Нова Прага",
      "normalized_name": "novaya-praga"
    }
  },
  {
    "model": "public.city",
    "pk": 294,
    "fields": {
      "has_districts": false,
      "latitude": 48.66584,
      "longitude": 30.81743,
      "radius": 1,
      "zoom": 12,
      "region": "kir",
      "name": "Новоархангельськ",
      "normalized_name": "novoarkhangelsk"
    }
  },
  {
    "model": "public.city",
    "pk": 295,
    "fields": {
      "has_districts": false,
      "latitude": 48.53446,
      "longitude": 32.12521,
      "radius": 1,
      "zoom": 12,
      "region": "kir",
      "name": "Нове",
      "normalized_name": "novoye"
    }
  },
  {
    "model": "public.city",
    "pk": 296,
    "fields": {
      "has_districts": false,
      "latitude": 48.31877,
      "longitude": 31.53009,
      "radius": 2,
      "zoom": 12,
      "region": "kir",
      "name": "Новоукраїнка",
      "normalized_name": "novoukrainka"
    }
  },
  {
    "model": "public.city",
    "pk": 297,
    "fields": {
      "has_districts": false,
      "latitude": 48.4594,
      "longitude": 31.71995,
      "radius": 2,
      "zoom": 11,
      "region": "kir",
      "name": "Первомайськ",
      "normalized_name": "pervomaysk_56"
    }
  },
  {
    "model": "public.city",
    "pk": 298,
    "fields": {
      "has_districts": false,
      "latitude": 48.33486,
      "longitude": 33.27052,
      "radius": 1,
      "zoom": 12,
      "region": "kir",
      "name": "Петрово",
      "normalized_name": "petrovo"
    }
  },
  {
    "model": "public.city",
    "pk": 299,
    "fields": {
      "has_districts": false,
      "latitude": 48.2433,
      "longitude": 31.4061,
      "radius": 1,
      "zoom": 12,
      "region": "kir",
      "name": "Помічна",
      "normalized_name": "pomoshnaya"
    }
  },
  {
    "model": "public.city",
    "pk": 300,
    "fields": {
      "has_districts": false,
      "latitude": 49.04865,
      "longitude": 33.22313,
      "radius": 6,
      "zoom": 12,
      "region": "kir",
      "name": "Світловодськ",
      "normalized_name": "svetlovodsk"
    }
  },
  {
    "model": "public.city",
    "pk": 301,
    "fields": {
      "has_districts": false,
      "latitude": 44.42097,
      "longitude": 34.04727,
      "radius": 3,
      "zoom": 12,
      "region": "cri",
      "name": "Алупка",
      "normalized_name": "alupka"
    }
  },
  {
    "model": "public.city",
    "pk": 302,
    "fields": {
      "has_districts": false,
      "latitude": 44.67446,
      "longitude": 34.41222,
      "radius": 5,
      "zoom": 12,
      "region": "cri",
      "name": "Алушта",
      "normalized_name": "alushta"
    }
  },
  {
    "model": "public.city",
    "pk": 303,
    "fields": {
      "has_districts": false,
      "latitude": 46.10841,
      "longitude": 33.69327,
      "radius": 2,
      "zoom": 12,
      "region": "cri",
      "name": "Армянськ",
      "normalized_name": "armyansk"
    }
  },
  {
    "model": "public.city",
    "pk": 304,
    "fields": {
      "has_districts": false,
      "latitude": 44.75051,
      "longitude": 33.86898,
      "radius": 3,
      "zoom": 12,
      "region": "cri",
      "name": "Бахчисарай",
      "normalized_name": "bakhchisaray"
    }
  },
  {
    "model": "public.city",
    "pk": 305,
    "fields": {
      "has_districts": false,
      "latitude": 45.05,
      "longitude": 34.6,
      "radius": 1,
      "zoom": 13,
      "region": "cri",
      "name": "Білогірськ",
      "normalized_name": "belogorsk"
    }
  },
  {
    "model": "public.city",
    "pk": 306,
    "fields": {
      "has_districts": false,
      "latitude": 44.89839,
      "longitude": 33.62158,
      "radius": 1,
      "zoom": 10,
      "region": "cri",
      "name": "Берегове",
      "normalized_name": "beregovo_345"
    }
  },
  {
    "model": "public.city",
    "pk": 307,
    "fields": {
      "has_districts": false,
      "latitude": 45.40056,
      "longitude": 36.48965,
      "radius": 1,
      "zoom": 12,
      "region": "cri",
      "name": "Бондаренкове",
      "normalized_name": "bondarenkovo"
    }
  },
  {
    "model": "public.city",
    "pk": 308,
    "fields": {
      "has_districts": false,
      "latitude": 44.85395,
      "longitude": 34.1192,
      "radius": 1,
      "zoom": 12,
      "region": "cri",
      "name": "Джанкой",
      "normalized_name": "dzhankoy"
    }
  },
  {
    "model": "public.city",
    "pk": 309,
    "fields": {
      "has_districts": false,
      "latitude": 45.19068,
      "longitude": 33.3679,
      "radius": 6,
      "zoom": 12,
      "region": "cri",
      "name": "Євпаторія",
      "normalized_name": "evpatoriya_2581"
    }
  },
  {
    "model": "public.city",
    "pk": 310,
    "fields": {
      "has_districts": false,
      "latitude": 45.2,
      "longitude": 33.36,
      "radius": 4,
      "zoom": 12,
      "region": "cri",
      "name": "Євпаторія",
      "normalized_name": "evpatoriya"
    }
  },
  {
    "model": "public.city",
    "pk": 311,
    "fields": {
      "has_districts": false,
      "latitude": 45.16,
      "longitude": 33.28,
      "radius": 1,
      "zoom": 12,
      "region": "cri",
      "name": "Заозерне",
      "normalized_name": "zaozernoe"
    }
  },
  {
    "model": "public.city",
    "pk": 312,
    "fields": {
      "has_districts": false,
      "latitude": 45.54473,
      "longitude": 34.34862,
      "radius": 1,
      "zoom": 12,
      "region": "cri",
      "name": "Знам'янка",
      "normalized_name": "znamenka_372"
    }
  },
  {
    "model": "public.city",
    "pk": 313,
    "fields": {
      "has_districts": false,
      "latitude": 44.71,
      "longitude": 34.35,
      "radius": 1,
      "zoom": 12,
      "region": "cri",
      "name": "Ізобільне",
      "normalized_name": "izobilnoe"
    }
  },
  {
    "model": "public.city",
    "pk": 314,
    "fields": {
      "has_districts": false,
      "latitude": 44.60846,
      "longitude": 33.60328,
      "radius": 3,
      "zoom": 12,
      "region": "cri",
      "name": "Інкерман",
      "normalized_name": "inkerman"
    }
  },
  {
    "model": "public.city",
    "pk": 315,
    "fields": {
      "has_districts": false,
      "latitude": 45.37289,
      "longitude": 36.48046,
      "radius": 6,
      "zoom": 12,
      "region": "cri",
      "name": "Керч",
      "normalized_name": "kerch"
    }
  },
  {
    "model": "public.city",
    "pk": 316,
    "fields": {
      "has_districts": false,
      "latitude": 45.49278,
      "longitude": 34.29409,
      "radius": 1,
      "zoom": 12,
      "region": "cri",
      "name": "Красногвардійське",
      "normalized_name": "krasnogvardeiskoe"
    }
  },
  {
    "model": "public.city",
    "pk": 317,
    "fields": {
      "has_districts": false,
      "latitude": 45.9522,
      "longitude": 33.79508,
      "radius": 3,
      "zoom": 12,
      "region": "cri",
      "name": "Красноперекопськ",
      "normalized_name": "krasnoperekopsk"
    }
  },
  {
    "model": "public.city",
    "pk": 318,
    "fields": {
      "has_districts": false,
      "latitude": 45.30817,
      "longitude": 33.03515,
      "radius": 1,
      "zoom": 12,
      "region": "cri",
      "name": "Мирне",
      "normalized_name": "mirnyy"
    }
  },
  {
    "model": "public.city",
    "pk": 319,
    "fields": {
      "has_districts": false,
      "latitude": 45.38595,
      "longitude": 33.1171,
      "radius": 1,
      "zoom": 12,
      "region": "cri",
      "name": "Новоозерне",
      "normalized_name": "novoozernoe"
    }
  },
  {
    "model": "public.city",
    "pk": 320,
    "fields": {
      "has_districts": false,
      "latitude": 44.98753,
      "longitude": 34.30545,
      "radius": 1,
      "zoom": 12,
      "region": "cri",
      "name": "Петрово",
      "normalized_name": "petrovo_555"
    }
  },
  {
    "model": "public.city",
    "pk": 321,
    "fields": {
      "has_districts": false,
      "latitude": 45.76827,
      "longitude": 33.48954,
      "radius": 1,
      "zoom": 7,
      "region": "cri",
      "name": "Роздольне",
      "normalized_name": "razdolnoye"
    }
  },
  {
    "model": "public.city",
    "pk": 322,
    "fields": {
      "has_districts": false,
      "latitude": 45.13178,
      "longitude": 33.5996,
      "radius": 1,
      "zoom": 12,
      "region": "cri",
      "name": "Саки",
      "normalized_name": "saki"
    }
  },
  {
    "model": "public.city",
    "pk": 323,
    "fields": {
      "has_districts": false,
      "latitude": 44.61145,
      "longitude": 33.52242,
      "radius": 5,
      "zoom": 12,
      "region": "cri",
      "name": "Севастополь",
      "normalized_name": "sevastopol"
    }
  },
  {
    "model": "public.city",
    "pk": 324,
    "fields": {
      "has_districts": false,
      "latitude": 44.9435,
      "longitude": 34.09053,
      "radius": 11,
      "zoom": 12,
      "region": "cri",
      "name": "Сімферополь",
      "normalized_name": "simferopol"
    }
  },
  {
    "model": "public.city",
    "pk": 325,
    "fields": {
      "has_districts": false,
      "latitude": 45.02742,
      "longitude": 35.08637,
      "radius": 3,
      "zoom": 12,
      "region": "cri",
      "name": "Старий Крим",
      "normalized_name": "staryy-krym"
    }
  },
  {
    "model": "public.city",
    "pk": 326,
    "fields": {
      "has_districts": false,
      "latitude": 44.84839,
      "longitude": 34.97603,
      "radius": 5,
      "zoom": 12,
      "region": "cri",
      "name": "Судак",
      "normalized_name": "sudak"
    }
  },
  {
    "model": "public.city",
    "pk": 327,
    "fields": {
      "has_districts": false,
      "latitude": 45.05355,
      "longitude": 35.39079,
      "radius": 1,
      "zoom": 12,
      "region": "cri",
      "name": "Феодосія",
      "normalized_name": "feodosiya"
    }
  },
  {
    "model": "public.city",
    "pk": 328,
    "fields": {
      "has_districts": false,
      "latitude": 45.50231,
      "longitude": 32.70668,
      "radius": 1,
      "zoom": 12,
      "region": "cri",
      "name": "Чорноморське",
      "normalized_name": "chernomorskoye"
    }
  },
  {
    "model": "public.city",
    "pk": 329,
    "fields": {
      "has_districts": false,
      "latitude": 45.42519,
      "longitude": 35.81704,
      "radius": 2,
      "zoom": 12,
      "region": "cri",
      "name": "Щолкіне",
      "normalized_name": "shchyelkino"
    }
  },
  {
    "model": "public.city",
    "pk": 330,
    "fields": {
      "has_districts": false,
      "latitude": 44.49528,
      "longitude": 34.16297,
      "radius": 1,
      "zoom": 12,
      "region": "cri",
      "name": "Ялта",
      "normalized_name": "yalta"
    }
  },
  {
    "model": "public.city",
    "pk": 331,
    "fields": {
      "has_districts": false,
      "latitude": 48.58617,
      "longitude": 39.19494,
      "radius": 1,
      "zoom": 12,
      "region": "lug",
      "name": "Олександрівськ",
      "normalized_name": "aleksandrovsk"
    }
  },
  {
    "model": "public.city",
    "pk": 332,
    "fields": {
      "has_districts": false,
      "latitude": 48.51,
      "longitude": 38.58,
      "radius": 1,
      "zoom": 12,
      "region": "lug",
      "name": "Алмазна",
      "normalized_name": "almaznaya"
    }
  },
  {
    "model": "public.city",
    "pk": 333,
    "fields": {
      "has_districts": false,
      "latitude": 48.46395,
      "longitude": 38.80335,
      "radius": 4,
      "zoom": 12,
      "region": "lug",
      "name": "Алчевськ",
      "normalized_name": "alchevsk"
    }
  },
  {
    "model": "public.city",
    "pk": 334,
    "fields": {
      "has_districts": false,
      "latitude": 48.11995,
      "longitude": 39.08979,
      "radius": 4,
      "zoom": 12,
      "region": "lug",
      "name": "Антрацит",
      "normalized_name": "antratsit"
    }
  },
  {
    "model": "public.city",
    "pk": 335,
    "fields": {
      "has_districts": false,
      "latitude": 48.4423,
      "longitude": 38.71688,
      "radius": 1,
      "zoom": 12,
      "region": "lug",
      "name": "Артемівськ",
      "normalized_name": "artyemovsk"
    }
  },
  {
    "model": "public.city",
    "pk": 336,
    "fields": {
      "has_districts": false,
      "latitude": 48.51,
      "longitude": 38.66202,
      "radius": 4,
      "zoom": 12,
      "region": "lug",
      "name": "Брянка",
      "normalized_name": "bryanka"
    }
  },
  {
    "model": "public.city",
    "pk": 337,
    "fields": {
      "has_districts": false,
      "latitude": 48.16616,
      "longitude": 38.83682,
      "radius": 2,
      "zoom": 12,
      "region": "lug",
      "name": "Вахрушеве",
      "normalized_name": "vakhrushevo"
    }
  },
  {
    "model": "public.city",
    "pk": 338,
    "fields": {
      "has_districts": false,
      "latitude": 48.27608,
      "longitude": 39.60784,
      "radius": 1,
      "zoom": 12,
      "region": "lug",
      "name": "Гірне",
      "normalized_name": "gornoe"
    }
  },
  {
    "model": "public.city",
    "pk": 339,
    "fields": {
      "has_districts": false,
      "latitude": 48.58665,
      "longitude": 38.93474,
      "radius": 2,
      "zoom": 12,
      "region": "lug",
      "name": "Зимогір'я",
      "normalized_name": "zimogore"
    }
  },
  {
    "model": "public.city",
    "pk": 340,
    "fields": {
      "has_districts": false,
      "latitude": 45.27937,
      "longitude": 34.53901,
      "radius": 1,
      "zoom": 12,
      "region": "lug",
      "name": "Золоте",
      "normalized_name": "zolotoe"
    }
  },
  {
    "model": "public.city",
    "pk": 341,
    "fields": {
      "has_districts": false,
      "latitude": 48.41316,
      "longitude": 38.62048,
      "radius": 1,
      "zoom": 12,
      "region": "lug",
      "name": "Зоринськ",
      "normalized_name": "zorinsk"
    }
  },
  {
    "model": "public.city",
    "pk": 342,
    "fields": {
      "has_districts": false,
      "latitude": 48.59727,
      "longitude": 38.59579,
      "radius": 3,
      "zoom": 12,
      "region": "lug",
      "name": "Ірміно",
      "normalized_name": "teplogorsk"
    }
  },
  {
    "model": "public.city",
    "pk": 343,
    "fields": {
      "has_districts": false,
      "latitude": 48.3001,
      "longitude": 39.743,
      "radius": 3,
      "zoom": 12,
      "region": "lug",
      "name": "Краснодон",
      "normalized_name": "krasnodon"
    }
  },
  {
    "model": "public.city",
    "pk": 344,
    "fields": {
      "has_districts": false,
      "latitude": 48.08,
      "longitude": 39.79,
      "radius": 2,
      "zoom": 12,
      "region": "lug",
      "name": "Червонопартизанськ",
      "normalized_name": "krasnopartizansk"
    }
  },
  {
    "model": "public.city",
    "pk": 345,
    "fields": {
      "has_districts": false,
      "latitude": 48.13881,
      "longitude": 38.92575,
      "radius": 4,
      "zoom": 12,
      "region": "lug",
      "name": "Червоний Промінь",
      "normalized_name": "krasnyyluch"
    }
  },
  {
    "model": "public.city",
    "pk": 346,
    "fields": {
      "has_districts": true,
      "latitude": 48.58237,
      "longitude": 39.32826,
      "radius": 9,
      "zoom": 12,
      "region": "lug",
      "name": "Луганськ",
      "normalized_name": "lugansk"
    }
  },
  {
    "model": "public.city",
    "pk": 347,
    "fields": {
      "has_districts": false,
      "latitude": 48.40413,
      "longitude": 39.21077,
      "radius": 3,
      "zoom": 12,
      "region": "lug",
      "name": "Лутугине",
      "normalized_name": "lutugino"
    }
  },
  {
    "model": "public.city",
    "pk": 348,
    "fields": {
      "has_districts": false,
      "latitude": 48.34436,
      "longitude": 39.65051,
      "radius": 1,
      "zoom": 12,
      "region": "lug",
      "name": "Молодогвардійськ",
      "normalized_name": "molodogvardeysk"
    }
  },
  {
    "model": "public.city",
    "pk": 349,
    "fields": {
      "has_districts": false,
      "latitude": 48.96597,
      "longitude": 38.34478,
      "radius": 1,
      "zoom": 12,
      "region": "lug",
      "name": "Новодружеськ",
      "normalized_name": "novodruzhesk"
    }
  },
  {
    "model": "public.city",
    "pk": 350,
    "fields": {
      "has_districts": false,
      "latitude": 49.53095,
      "longitude": 39.12087,
      "radius": 1,
      "zoom": 12,
      "region": "lug",
      "name": "Новопсков",
      "normalized_name": "novopskov"
    }
  },
  {
    "model": "public.city",
    "pk": 351,
    "fields": {
      "has_districts": false,
      "latitude": 48.63306,
      "longitude": 38.5254,
      "radius": 3,
      "zoom": 12,
      "region": "lug",
      "name": "Первомайськ",
      "normalized_name": "pervomaysk_326"
    }
  },